station_id,name,lat,lon,address,capacity,start_date,end_date,current
2,002 - Retiro I,-34.59242413,-58.37470989,AV. Dr. José María Ramos Mejía 1300,39,2024-04-23 22:58:01.802759,2024-09-17 18:49:58.994844,0
3,003 - ADUANA,-34.61220714255728,-58.36912906378899,Av. Paseo Colón 380,28,2024-04-23 22:58:01.802759,2024-09-17 18:49:59.003807,0
4,004 - Plaza Roma,-34.6030082348981,-58.36885646243477,Av. Corrientes 100,20,2024-04-23 22:58:01.802759,2024-09-17 18:49:59.004807,0
5,005 - Plaza Italia,-34.5805497,-58.4209542,Av. Sarmiento 2601,42,2024-04-23 22:58:01.802759,2024-09-17 18:49:59.005808,0
6,006 - Parque Lezama,-34.628526,-58.369758,"Avenida Martin Garcia, 295",20,2024-04-23 22:58:01.802759,2024-09-17 18:49:59.006808,0
7,007 - OBELISCO,-34.606498,-58.381098,CARLOS PELEGRINI 215,24,2024-04-23 22:58:01.802759,2024-09-17 18:49:59.007808,0
8,008 - Congreso,-34.6094218,-58.3893364,"Cevallos, Virrey& Yrigoyen, Hipolito Av.",24,2024-04-23 22:58:01.802759,2024-09-17 18:49:59.009212,0
9,009 - Parque Las Heras,-34.585443,-58.407741,"2300 Diaz, Cnel. Av. & French",24,2024-04-23 22:58:01.802759,2024-09-17 18:49:59.010293,0
12,012 - Plaza Vicente Lopez,-34.5927096,-58.388807,Parana & Juncal,16,2024-04-23 22:58:01.802759,2024-09-17 18:49:59.011296,0
13,013 - ONCE,-34.61009,-58.406,Av. Pueyrredon & Av. Rivadavia,30,2024-04-23 22:58:01.802759,2024-09-17 18:49:59.012318,0
14,014 - Pacifico,-34.577424,-58.426387,"Santa Fe Av. & Bullrich, Int. Av.",30,2024-04-23 22:58:01.802759,2024-09-17 18:49:59.014179,0
17,017 - Plaza Almagro,-34.6064101,-58.4187306,"441 Bulnes & Peron, Juan Domingo, Tte. General",20,2024-04-23 22:58:01.802759,2024-09-17 18:49:59.015562,0
21,021 - Parque Patricios,-34.640111,-58.406432,Iguazu & Uspallata,24,2024-04-23 22:58:01.802759,2024-09-17 18:49:59.016669,0
22,022 - Arenales,-34.5938629,-58.3825498,Cerrito & Arenales,20,2024-04-23 22:58:01.802759,2024-09-17 18:49:59.017670,0
23,023 - Suipacha,-34.600139,-58.379836,Suipacha & Viamonte,12,2024-04-23 22:58:01.802759,,1
24,024 - ALSINA,-34.610583,-58.3808943,Adolfo Alsina& Bernardo De Irigoyen,18,2024-04-23 22:58:01.802759,2024-09-17 18:49:59.018672,0
25,025 - Plaza Guemes,-34.5894269,-58.4161178,"Salguero, Jeronimo & Mansilla, Lucio Norberto, General",30,2024-04-23 22:58:01.802759,2024-09-17 18:49:59.019664,0
26,026 - JUANA MANSO I,-34.600752,-58.3638723,"Manso Juana & De La Barra, Emma",30,2024-04-23 22:58:01.802759,2024-09-17 18:49:59.021662,0
27,027 - Montevideo,-34.599068,-58.3900887,Cordoba Av. & Montevideo,20,2024-04-23 22:58:01.802759,2024-09-17 18:49:59.022737,0
29,029 - Parque Centenario,-34.6079414,-58.4335573,Av. Patricias Argentinas & Estivao,30,2024-04-23 22:58:01.802759,2024-09-17 18:49:59.023833,0
32,032 - Catedral,-34.60674458045258,-58.37365550287732,Bartolomé Mitre & San Martín,18,2024-04-23 22:58:01.802759,2024-09-17 18:49:59.024825,0
33,033 - Facultad de Medicina,-34.5970909,-58.3989807,Pres. José Evaristo Uriburu 987,20,2024-04-23 22:58:01.802759,2024-09-17 18:49:59.025833,0
35,035 - INGENIERO BUTTY,-34.5964246,-58.371847,Ing. E. Butty 291,32,2024-04-23 22:58:01.802759,2024-09-17 18:49:59.026832,0
36,036 - MAIPÚ,-34.6010599,-58.3745346,Tucumán 536,12,2024-04-23 22:58:01.802759,2024-09-17 18:49:59.027829,0
38,038 - Plaza Libertad,-34.5970497,-58.3828403,Cerrito 990 y Av. Marcelo T. De Alvear,20,2024-04-23 22:58:01.802759,2024-09-17 18:49:59.028838,0
41,041 - PARQUE PATRICIOS II,-34.6371232,-58.4058883,Av Caseros 3015,20,2024-04-23 22:58:01.802759,2024-09-17 18:49:59.029842,0
43,334 - CENTRO DE EXPOSICIONES,-34.584018,-58.389921,2133 Figueroa Alcorta,28,2024-04-23 22:58:01.802759,2024-09-17 18:49:59.031522,0
45,045 - Uruguay,-34.6018635,-58.3866934,561 Uruguay & Av. Tucuman,20,2024-04-23 22:58:01.802759,2024-09-17 18:49:59.033436,0
46,046 - Chile,-34.6163729,-58.37436969999999,Perú 718,18,2024-04-23 22:58:01.802759,2024-09-17 18:49:59.038682,0
48,034 - Colonia Express,-34.6236397,-58.3632448,Elvira Rawson de Dellepiane 150,14,2024-04-23 22:58:01.802759,2024-09-17 18:49:59.038682,0
49,049 - 33 Orientales,-34.6290527,-58.422611,Constitucion & Treinta Y Tres Orientales,16,2024-04-23 22:58:01.802759,2024-09-17 18:49:59.038682,0
50,050 - Hospital Rivadavia,-34.5837348,-58.4010798,2516 Pereyra Lucena,20,2024-04-23 22:58:01.802759,2024-09-17 18:49:59.038682,0
51,051 - TUCUMAN,-34.6014776,-58.3821261,Tucuman & 9 De Julio Av.,12,2024-04-23 22:58:01.802759,,1
54,054 - Acuña de Figueroa,-34.5982097,-58.4220694,Lavalle 4015,20,2024-04-23 22:58:01.802759,2024-09-17 18:49:59.038682,0
56,056 - Plaza Palermo Viejo,-34.588567,-58.425999,Costa Rica & Armenia,20,2024-04-23 22:58:01.802759,2024-09-17 18:49:59.047288,0
57,057 - BELGRANO,-34.61324972988651,-58.37064512890549,Balcarce 482,12,2024-04-23 22:58:01.802759,2024-09-17 18:49:59.051519,0
58,058 - Ministro Carranza,-34.5752773,-58.4346883,Santa Fe Av. & Dorrego,20,2024-04-23 22:58:01.802759,2024-09-17 18:49:59.051519,0
59,018 - Independencia,-34.617654,-58.380565,Idependencia y Bernardo de Irigoyen,20,2024-04-23 22:58:01.802759,2024-09-17 18:49:59.051519,0
60,060 - 25 De Mayo,-34.6016509,-58.371079,527 25 De Mayo,20,2024-04-23 22:58:01.802759,2024-09-17 18:49:59.051519,0
61,098 - BENITO JUAREZ,-34.6189273,-58.5051769, Benito Juarez 2231,12,2024-04-23 22:58:01.802759,2024-09-17 18:49:59.051519,0
63,063 - Reconquista,-34.59977772506695,-58.37468663054962,Viamonte 555,28,2024-04-23 22:58:01.802759,2024-09-17 18:49:59.051519,0
64,064 - RIOBAMBA,-34.5936508,-58.3941087,Riobamba 1264 & Juncal,20,2024-04-23 22:58:01.802759,2024-09-17 18:49:59.051519,0
65,065 - Julián Álvarez,-34.5873124,-58.4157873,3822 Guemes,20,2024-04-23 22:58:01.802759,2024-09-17 18:49:59.051519,0
66,066 - Billinghurst,-34.5945475,-58.4138713,3508 Carcova,20,2024-04-23 22:58:01.802759,2024-09-17 18:49:59.051519,0
68,105 - PARQUE SAAVEDRA,-34.552148,-58.480464,García del Río 3590,16,2024-04-23 22:58:01.802759,2024-09-17 18:49:59.051519,0
69,069 - Ecuador,-34.5961006,-58.4046092,"1226 Ecuador & Mansilla, Lucio Norberto, General",16,2024-04-23 22:58:01.802759,2024-09-17 18:49:59.051519,0
70,070 - ARAOZ,-34.5926862,-58.4260597,1413 Araoz & Gorriti CABA,24,2024-04-23 22:58:01.802759,2024-09-17 18:49:59.064449,0
71,071 - CERRITO,-34.6026673,-58.3833559,Libertad & lavalle,30,2024-04-23 22:58:01.802759,2024-09-17 18:49:59.064449,0
73,073 - Ruy Díaz de Guzmán,-34.6306814,-58.3718235,Avenida Martin Garcia y Ruy Díaz de Guzmán,20,2024-04-23 22:58:01.802759,2024-09-17 18:49:59.064449,0
74,074 - INSTITUTO LELOIR,-34.60439,-58.43454,Juana De Ibarbourou & Av Patricias Argentinas,30,2024-04-23 22:58:01.802759,2024-09-17 18:49:59.064449,0
75,075 - Plaza Primero de Mayo,-34.6122976,-58.3989871,238 Pichincha,20,2024-04-23 22:58:01.802759,2024-09-17 18:49:59.064449,0
76,076 - Ayacucho,-34.6074084,-58.3950548,"Ayacucho &Peron, Juan Domingo, Tte. General",20,2024-04-23 22:58:01.802759,2024-09-17 18:49:59.064449,0
77,109 - ESTACION PUEYRREDON,-34.581135,-58.501487,Bolivia 5071,16,2024-04-23 22:58:01.802759,2024-09-17 18:49:59.064449,0
79,079 - AZUCENA VILLAFLOR,-34.61189,-58.36393,"Villaflor, Azucena & Dealessi, Pierina",30,2024-04-23 22:58:01.802759,2024-09-17 18:49:59.064449,0
80,080 - VALLE,-34.6245807,-58.43412319999999,Valle 486,12,2024-04-23 22:58:01.802759,2024-09-17 18:49:59.064449,0
82,082 - HOSPITAL ITALIANO,-34.6078917,-58.4263947,394 Rawson & Potosi,20,2024-04-23 22:58:01.802759,2024-09-17 18:49:59.064449,0
83,083 - Paraná,-34.603269,-58.3893728,1590 Lavalle,28,2024-04-23 22:58:01.802759,2024-09-17 18:49:59.064449,0
85,085 - AGUERO,-34.5948057,-58.4091784,"Aguero & Mansilla, Lucio Norberto, General",20,2024-04-23 22:58:01.802759,2024-09-17 18:49:59.064449,0
86,086 - SAAVEDRA,-34.6212681,-58.4016808,1019 Saavedra,20,2024-04-23 22:58:01.802759,2024-09-17 18:49:59.064449,0
87,087 - Guayaquil,-34.619845,-58.4314942,Guayaquil & Doblas,16,2024-04-23 22:58:01.802759,2024-09-17 18:49:59.064449,0
89,089 - Cabello,-34.5825475,-58.4056671,3082 Cabello,20,2024-04-23 22:58:01.802759,2024-09-17 18:49:59.064449,0
91,091 - Pasco,-34.6174482,-58.397602,708 Pasco & Chile,23,2024-04-23 22:58:01.802759,2024-09-17 18:49:59.080705,0
92,092 - Salcedo,-34.6316444,-58.4053386,2908 Salcedo & Dean Funes,20,2024-04-23 22:58:01.802759,2024-09-17 18:49:59.081166,0
93,093 - CARLOS CALVO,-34.620798,-58.3944635,Sarandi 1010,20,2024-04-23 22:58:01.802759,2024-09-17 18:49:59.081166,0
94,094 - GÚZMAN,-34.591511,-58.449652,Av Guzman 129 & Leiva,30,2024-04-23 22:58:01.802759,2024-09-17 18:49:59.081166,0
96,096 - Carlos Gardel,-34.6027814,-58.4116586,3302 Guardia Vieja & Aguero,16,2024-04-23 22:58:01.802759,2024-09-17 18:49:59.081166,0
98,037- Claudia Pía Baudracco,-34.6081643,-58.3779002,Esmeralda y Rivadavia,16,2024-04-23 22:58:01.802759,2024-09-17 18:49:59.081166,0
99,099 - Malabia,-34.5960961,-58.435408,780 Malabia & Loyola,19,2024-04-23 22:58:01.802759,2024-09-17 18:49:59.081166,0
101,101 - Fitz Roy,-34.5891857,-58.4424397,Fitz Roy  1092 & Loyola,20,2024-04-23 22:58:01.802759,2024-09-17 18:49:59.081166,0
102,102 - ROSETI,-34.5851209,-58.4492989,ROSETI 390,20,2024-04-23 22:58:01.802759,2024-09-17 18:49:59.081166,0
104,104 - Federico Lacroze,-34.587617,-58.455212,Av. Guzman 1100 & Av. Corrientes,30,2024-04-23 22:58:01.802759,2024-09-17 18:49:59.081166,0
107,107 - HOSPITAL GARRAHAN,-34.63037718,-58.395844,Brasil 2290,16,2024-04-23 22:58:01.802759,2024-09-17 18:49:59.081166,0
111,111 - MACACHA GUEMES,-34.6054877,-58.3646858,Macacha Guemes 350,30,2024-04-23 22:58:01.802759,2024-09-17 18:49:59.081166,0
112,112 - 9 de Julio,-34.612075,-58.380384,Bernardo Irigoyen 320,20,2024-04-23 22:58:01.802759,2024-09-17 18:49:59.081166,0
114,114 - TORRE MACRO,-34.59398891976011,-58.37142444536896, Av. Eduardo Madero 1180,12,2024-04-23 22:58:01.802759,2024-09-17 18:49:59.081166,0
116,116 - HOSPITAL ALEMÁN,-34.5921708,-58.4025894,Beruti & Ecuador,12,2024-04-23 22:58:01.802759,2024-09-17 18:49:59.081166,0
117,117 - HUMBERTO 1°,-34.61955283137281,-58.373159304761074,Av. Carlos Calvo 513,20,2024-04-23 22:58:01.802759,2024-09-17 18:49:59.097325,0
118,118 - MEXICO,-34.6170196,-58.4026531,Saavedra & Mexico,20,2024-04-23 22:58:01.802759,2024-09-17 18:49:59.097727,0
120,120 - HOSPITAL RAMOS MEJIA,-34.617509,-58.4092876,3084 Agrelo,20,2024-04-23 22:58:01.802759,2024-09-17 18:49:59.097727,0
121,121 - YATAY,-34.6011732,-58.4285093,925 Yatay& Humahuaca,20,2024-04-23 22:58:01.802759,2024-09-17 18:49:59.097727,0
122,122 - COSTA RICA,-34.5915614,-58.41981629999999,COSTA RICA 4060,24,2024-04-23 22:58:01.802759,2024-09-17 18:49:59.097727,0
124,124 - UGARTECHE,-34.580538,-58.411965,3050 Ugarteche,20,2024-04-23 22:58:01.802759,2024-09-17 18:49:59.097727,0
126,126 - Ministerio de Justicia y Seguridad,-34.63922546953217,-58.36958898591383,Olavarría 1201,15,2024-04-23 22:58:01.802759,2024-09-17 18:49:59.097727,0
128,128 - PARQUE DEL BAJO,-34.60515159,-58.36882117,Tte. Gral. Juan Domingo Perón 133,28,2024-04-23 22:58:01.802759,2024-09-17 18:49:59.097727,0
130,130 - RETIRO II,-34.5917376,-58.37436403,Av. Dr. José María Ramos Mejía 1350,40,2024-04-23 22:58:01.802759,2024-09-17 18:49:59.097727,0
131,131- HOSPITAL DE CLÍNICAS,-34.5984043,-58.3990158,"Uriburu Jose E., Pres. & Paraguay",16,2024-04-23 22:58:01.802759,2024-09-17 18:49:59.097727,0
132,132 - CORRIENTES,-34.6033685,-58.372763,Reconquista & Corrientes Av.,12,2024-04-23 22:58:01.802759,2024-09-17 18:49:59.097727,0
134,134 - SOLDADO DE LA FRONTERA,-34.683188,-58.468952,Ana Díaz 5899,12,2024-04-23 22:58:01.802759,2024-09-17 18:49:59.097727,0
135,135 - MARCELO T. DE ALVEAR,-34.5976425,-58.378363,Esmeralda & Paraguay,20,2024-04-23 22:58:01.802759,2024-09-17 18:49:59.097727,0
137,137 - AZOPARDO Y CHILE,-34.6155977,-58.3674923,AZOPARDO 700,24,2024-04-23 22:58:01.802759,2024-09-17 18:49:59.097727,0
138,138 - Hospital Britanico,-34.6353595,-58.3876724,153 Perdriel,12,2024-04-23 22:58:01.802759,2024-09-17 18:49:59.097727,0
144,144 - PUEYRREDÓN,-34.6018744,-58.4060944,684 Boulogne Sur Mer & Tucuman,20,2024-04-23 22:58:01.802759,2024-09-17 18:49:59.097727,0
146,146 - Hospital Francés,-34.6221118,-58.4078419,"3024 Calvo, Carlos",20,2024-04-23 22:58:01.802759,2024-09-17 18:49:59.112830,0
148,323 - Parque Avellaneda II,-34.6451767192088,-58.484555279762255,Av. Directorio 4295 ,16,2024-04-23 22:58:01.802759,2024-09-17 18:49:59.113531,0
149,149 - LIMA,-34.6153266,-58.3813642,México & Lima,16,2024-04-23 22:58:01.802759,2024-09-17 18:49:59.113531,0
150,150 - RODRIGO BUENO,-34.6187547,-58.3554654,Av. España 2200,36,2024-04-23 22:58:01.802759,2024-09-17 18:49:59.115545,0
152,152 - JULIETA LANTERI,-34.6181645,-58.3596311,"Vera Peñaloza, Rosario 599 & Lanteri Julieta",28,2024-04-23 22:58:01.802759,2024-09-17 18:49:59.115545,0
153,153 - JUAN MANUEL DE BLANES,-34.6310284,-58.36288800000001,Av. Almirante Brown 653,20,2024-04-23 22:58:01.802759,2024-09-17 18:49:59.115545,0
155,155 - Parque José Evaristo Uriburu,-34.645082199430064,-58.41749173359584, Quilmes 491,12,2024-04-23 22:58:01.802759,2024-09-17 18:49:59.115545,0
156,156 - Plaza Alemania,-34.5775895,-58.4074696,2939 Cavia,20,2024-04-23 22:58:01.802759,2024-09-17 18:49:59.115545,0
158,158 - VILLARROEL,-34.592735,-58.4450697,1321 Villarroel & Humboldt CABA,20,2024-04-23 22:58:01.802759,2024-09-17 18:49:59.115545,0
161,161 - Humahuaca,-34.6020779,-58.4196761,3912 Humahuaca,20,2024-04-23 22:58:01.802759,2024-09-17 18:49:59.115545,0
162,162 - LARREA Y BARTOLOMÉ MITRE,-34.608985,-58.401924,80 Larrea,20,2024-04-23 22:58:01.802759,2024-09-17 18:49:59.115545,0
163,163 - ONCE II,-34.6095663,-58.4064308,Bartolome Mitre & Av. Puyrredon,30,2024-04-23 22:58:01.802759,2024-09-17 18:49:59.115545,0
164,164 - FACULTAD DE INGENIERIA,-34.617301,-58.3698984,AV. PASEO COLÓN 811,20,2024-04-23 22:58:01.802759,2024-09-17 18:49:59.115545,0
165,165 - PLAZA MONSEÑOR MIGUEL DE ANDREA,-34.597048,-58.407614,Dr Tomas Manuel De  Anchorena &  Jose A. Cabrera,12,2024-04-23 22:58:01.802759,2024-09-17 18:49:59.115545,0
166,166 - Cementerio de Recoleta,-34.588346663239754,-58.39414794286565,Vicente López 2100,12,2024-04-23 22:58:01.802759,2024-09-17 18:49:59.115545,0
167,275 - PLAZA 24 DE SEPTIEMBRE,-34.606984,-58.44854,1355 San Martin Av.,24,2024-04-23 22:58:01.802759,2024-09-17 18:49:59.115545,0
168,168 - Estados Unidos,-34.6186217,-58.3812271,Estados Unidos & Lima,20,2024-04-23 22:58:01.802759,2024-09-17 18:49:59.115545,0
171,171 - Pasteur,-34.6032813,-58.3997553,519 Pasteur,20,2024-04-23 22:58:01.802759,2024-09-17 18:49:59.115545,0
172,172 - BRASIL,-34.625426,-58.371082,BRASIL&DEFENSA,16,2024-04-23 22:58:01.802759,2024-09-17 18:49:59.115545,0
174,174 - MINISTERIO DE EDUCACION,-34.597225,-58.391768,Marcelo T. de Alvear & Rodriguez Peña,20,2024-04-23 22:58:01.802759,2024-09-17 18:49:59.130899,0
175,147 - Constitución,-34.626851,-58.380707,Avenida Juan de Garay 1050,54,2024-04-23 22:58:01.802759,2024-09-17 18:49:59.131481,0
176,067 - PARQUE SARMIENTO I,-34.555254,-58.494845,Av. Dr. Ricardo Balbín 4402,16,2024-04-23 22:58:01.802759,2024-09-17 18:49:59.131481,0
177,177 -PLANETARIO,-34.568165,-58.412121,Av Casares y Av Belisario Roldan,12,2024-04-23 22:58:01.802759,2024-09-17 18:49:59.131481,0
179,179 - CASA SAN,-34.6384786,-58.3642885,Olavarría 811,16,2024-04-23 22:58:01.802759,2024-09-17 18:49:59.131481,0
181,181 - BILLINGHURST Y MANSILLA,-34.5926649,-58.4120072,"1520 Billinghurst & Mansilla, Lucio Norberto, General",19,2024-04-23 22:58:01.802759,2024-09-17 18:49:59.131481,0
182,182 - RAVIGNANI Y GUATEMALA,-34.5780479,-58.4352466,"2185 Ravignani, Emilio, Dr. & Guatemala",20,2024-04-23 22:58:01.802759,2024-09-17 18:49:59.131481,0
183,183 - VIRREY CEVALLOS,-34.6156994,-58.3899728,Mexico 1652,28,2024-04-23 22:58:01.802759,2024-09-17 18:49:59.131481,0
184,184 - Pedro Echague,-34.6306129,-58.3913419,Pedro Echague 1878 & Combate De Los Pozos,20,2024-04-23 22:58:01.802759,2024-09-17 18:49:59.131481,0
186,186 - MANZANA 66,-34.6136356,-58.4064415,2875 Moreno,20,2024-04-23 22:58:01.802759,2024-09-17 18:49:59.131481,0
187,261 - QUINTEROS LIDORO,-34.552571,-58.450897,"1483 Quinteros, Lidoro J. Av.",16,2024-04-23 22:58:01.802759,2024-09-17 18:49:59.131481,0
188,373 - Jorgelina De Simone,-34.62393,-58.39125,Cochabamba 1799,24,2024-04-23 22:58:01.802759,2024-09-17 18:49:59.131481,0
189,189 - POSADAS,-34.5886889,-58.3852113,1350 Posadas,20,2024-04-23 22:58:01.802759,2024-09-17 18:49:59.131481,0
190,190 - JUNCAL,-34.5850763,-58.4111136,"Juncal & Salguero, Jeronimo",20,2024-04-23 22:58:01.802759,2024-09-17 18:49:59.131481,0
191,191 - Rivadavia y 9 de Julio,-34.6079305,-58.3808358,Pellegrini Y Rivadavia Av.,16,2024-04-23 22:58:01.802759,2024-09-17 18:49:59.131481,0
193,193 - ARENALES Y AGUERO,-34.5908626,-58.4061652,Arenales y Aguero,20,2024-04-23 22:58:01.802759,2024-09-17 18:49:59.131481,0
194,194 - PERÓN Y ACUÑA DE FIGUEROA,-34.6060758,-58.4224635,3997 TTE. GENERAL JUAN DOMINGO PERON,16,2024-04-23 22:58:01.802759,2024-09-17 18:49:59.131481,0
196,196 - HOSPITAL ARGERICH,-34.6277671,-58.36602490000001,750 Pi y Margall,20,2024-04-23 22:58:01.802759,2024-09-17 18:49:59.147082,0
197,197 - PLAZA CIUDAD DE UDINE,-34.620998,-58.493044,Mercedes 1480,20,2024-04-23 22:58:01.802759,2024-09-17 18:49:59.147821,0
199,199 - ESTADOS UNIDOS Y BOEDO,-34.6222601,-58.4160137,3568 Estados Unidos & Boedo Av.,20,2024-04-23 22:58:01.802759,2024-09-17 18:49:59.147821,0
200,200 - AUSTRIA Y FRENCH,-34.5882997,-58.4042608,Austria 2075,16,2024-04-23 22:58:01.802759,2024-09-17 18:49:59.147821,0
202,001 - FACULTAD DE DERECHO,-34.583749,-58.390602,Av. Pres. Figueroa Alcorta 2120,29,2024-04-23 22:58:01.802759,2024-09-17 18:49:59.147821,0
203,108 - Usina del Arte,-34.628757,-58.356259,"Caffarena, Agustin R. & Don Pedro De Mendoza Av.",24,2024-04-23 22:58:01.802759,2024-09-17 18:49:59.147821,0
204,167 - Hipólito Yrigoyen,-34.614948,-58.427818,"4300 Yrigoyen, Hipolito Av.",24,2024-04-23 22:58:01.802759,2024-09-17 18:49:59.147821,0
206,159 - Fitz Roy & Gorriti,-34.58495,-58.437339,Fitz Roy & Gorriti,14,2024-04-23 22:58:01.802759,2024-09-17 18:49:59.147821,0
207,123 - BASUALDO Y RODO,-34.65237685302847,-58.48735935690687,Guardia Nacional 1700,16,2024-04-23 22:58:01.802759,2024-09-17 18:49:59.147821,0
208,145 - RAVIGNANI,-34.5807161,-58.43840400000001,EMILIO RAVIGNANI 1802,20,2024-04-23 22:58:01.802759,2024-09-17 18:49:59.147821,0
210,335 - General Urquiza,-34.572165,-58.411278,Figueroa Alcorta & Sarmiento,19,2024-04-23 22:58:01.802759,2024-09-17 18:49:59.147821,0
212,129 - Velasco,-34.600275,-58.434875,J.Ramirez de Velasco 285,20,2024-04-23 22:58:01.802759,2024-09-17 18:49:59.147821,0
213,136 - Acevedo,-34.599659,-58.442685,Acevedo y Padilla,20,2024-04-23 22:58:01.802759,2024-09-17 18:49:59.162915,0
215,113 - Guatemala,-34.585878,-58.424996,Guatemala 4773,20,2024-04-23 22:58:01.802759,2024-09-17 18:49:59.163542,0
216,059 - Coronel Diaz,-34.589968,-58.411493,Guemes 3330 & Coronel Diaz,20,2024-04-23 22:58:01.802759,2024-09-17 18:49:59.165406,0
219,140 - Las Casas,-34.6360274,-58.4156332,Metan 3661,23,2024-04-23 22:58:01.802759,2024-09-17 18:49:59.165406,0
220,097 - Avelino Diaz,-34.635128,-58.427573,Avelino Diaz&Doblas,16,2024-04-23 22:58:01.802759,2024-09-17 18:49:59.165406,0
222,160 - Godoy Cruz y Libertador,-34.5759189160704,-58.41854288458634,Av. Cerviño 4301,20,2024-04-23 22:58:01.802759,2024-09-17 18:49:59.165406,0
223,178 - José Marmol,-34.6234,-58.424853,803 José Marmol,16,2024-04-23 22:58:01.802759,2024-09-17 18:49:59.165406,0
227,188 - Aranguren,-34.61036075,-58.43276297,Dr. Juan Felipe Aranguren 131,20,2024-04-23 22:58:01.802759,2024-09-17 18:49:59.165406,0
228,010 - Madero UCA,-34.6164879,-58.3656683,"1600 Moreau De Justo, Alicia Av.",12,2024-04-23 22:58:01.802759,2024-09-17 18:49:59.165406,0
229,243 - PLAZOLETA CELEDONIO FLORES,-34.581576,-58.45153,Cordoba 6599,12,2024-04-23 22:58:01.802759,2024-09-17 18:49:59.165406,0
230,259 - PLAZA CASTELLI,-34.5678255,-58.4645037,Echeverria 3249,16,2024-04-23 22:58:01.802759,2024-09-17 18:49:59.165406,0
231,384 - PLAZA BENITO NAZAR,-34.60511787,-58.445999589,VALENTIN VIRASORO 1349,16,2024-04-23 22:58:01.802759,2024-09-17 18:49:59.165406,0
232,252 - Tamborini,-34.5599779,-58.4790578,Tamborini 3821,20,2024-04-23 22:58:01.802759,2024-09-17 18:49:59.165406,0
234,344 - UNIVERSIDAD DI TELLA,-34.5480059,-58.44694390000001,Figueroa Alcorta 7350,20,2024-04-23 22:58:01.802759,2024-09-17 18:49:59.165406,0
235,281 - Villa Urquiza,-34.573734,-58.48692409,Av. Triunvirato 4800,24,2024-04-23 22:58:01.802759,2024-09-17 18:49:59.165406,0
236,254 - Plaza Rafael Hernandez,-34.562161,-58.455166,Vuelta de Obligado 2004,16,2024-04-23 22:58:01.802759,2024-09-17 18:49:59.165406,0
237,302 - ESTACION VILLA LURO,-34.63670935917866,-58.50135525810292,Virgilio 90,16,2024-04-23 22:58:01.802759,2024-09-17 18:49:59.165406,0
239,391 - Plaza República de Ecuador,-34.56533652,-58.42062076,Av. Pres. Figueroa Alcorta 5201,20,2024-04-23 22:58:01.802759,2024-09-17 18:49:59.181047,0
241,348 - Villa del Parque,-34.600874,-58.494123,"Gutierrez, Ricardo 3105",12,2024-04-23 22:58:01.802759,2024-09-17 18:49:59.181047,0
242,103 - MALBA,-34.57694914795284,-58.40398420287856,Av. Pres. Figueroa Alcorta 3451,32,2024-04-23 22:58:01.802759,2024-09-17 18:49:59.181047,0
245,248 - Husares,-34.552594,-58.4429397,Husares 2201,16,2024-04-23 22:58:01.802759,2024-09-17 18:49:59.181047,0
247,282 - Tronador,-34.5838957,-58.466494,Triunvirato Av. & Tronador,18,2024-04-23 22:58:01.802759,2024-09-17 18:49:59.181047,0
248,346 - Plaza Zapiola,-34.573522,-58.474635,2001 Donado,24,2024-04-23 22:58:01.802759,2024-09-17 18:49:59.181047,0
251,388 - Plaza Jose C Paz,-34.641728,-58.402483,Dr. Prof. Pedro Chutro 2881,12,2024-04-23 22:58:01.802759,2024-09-17 18:49:59.181047,0
252,331 - CALIFORNIA,-34.647121,-58.374336,California 1774 y General Hornos,24,2024-04-23 22:58:01.802759,2024-09-17 18:49:59.181047,0
253,383 - BOEDO Y VENEZUELA,-34.6163544,-58.4170737,BOEDO 339,16,2024-04-23 22:58:01.802759,2024-09-17 18:49:59.181047,0
254,276 - PRIMERA JUNTA,-34.62079441851816,-58.4413509067459,Av. Rivadavia 5408 ,15,2024-04-23 22:58:01.802759,2024-09-17 18:49:59.181047,0
255,374 - Puan,-34.622092,-58.448547,Yerbal 1290,19,2024-04-23 22:58:01.802759,2024-09-17 18:49:59.181047,0
257,264 - Plaza Marcos Sastre,-34.570825,-58.481236,Miller & Monroe,24,2024-04-23 22:58:01.802759,2024-09-17 18:49:59.181047,0
258,336 - La Pampa,-34.565521,-58.455334,La Pampa 2512 & Ciudad de la Paz,16,2024-04-23 22:58:01.802759,2024-09-17 18:49:59.181047,0
259,290 - Club Excursionistas,-34.5591522,-58.4441762,Migueletes 1782 (y La Pampa),16,2024-04-23 22:58:01.802759,2024-09-17 18:49:59.181047,0
260,371 - Paseo de las Americas,-34.5530794109,-58.43522348866,Av. Pres Figueroa Alcorta 6400,12,2024-04-23 22:58:01.802759,2024-09-17 18:49:59.181047,0
261,272 - Plaza Bruno Giordano,-34.616151,-58.440584,Bruno Giordano&Neuquen,16,2024-04-23 22:58:01.802759,2024-09-17 18:49:59.196762,0
262,349 - Plaza Saenz Peña,-34.6097088334705,-58.46729693359809,Andrés Lamas 1699,16,2024-04-23 22:58:01.802759,2024-09-17 18:49:59.197273,0
263,270 - PLAZA DEL ANGEL GRIS,-34.622003,-58.457555,Calcena & Avellaneda Av.,20,2024-04-23 22:58:01.802759,2024-09-17 18:49:59.198738,0
264,283 - BALBIN II,-34.5559308,-58.4812325,Av. Dr. Ricardo Balbín y Crisólogo Larralde,16,2024-04-23 22:58:01.802759,2024-09-17 18:49:59.198738,0
265,361 - Plaza Don Segundo Sombra,-34.64196,-58.4505,2347 Santander,28,2024-04-23 22:58:01.802759,2024-09-17 18:49:59.198738,0
267,315 - BEIRO Y SAN MARTÍN,-34.5976121,-58.4985424,3209 Av. Francisco Beiro,16,2024-04-23 22:58:01.802759,2024-09-17 18:49:59.198738,0
268,399 - GARCIA DEL RIO,-34.5503,-58.477,Av. García del Río 3182,36,2024-04-23 22:58:01.802759,2024-09-17 18:49:59.198738,0
269,260 - SAN MIGUEL DE GARICOITS,-34.577329,-58.457799,"Delgado & Loreto, Virrey",18,2024-04-23 22:58:01.802759,2024-09-17 18:49:59.198738,0
270,370 - Beauchef,-34.640114,-58.43026,1995 Beauchef,28,2024-04-23 22:58:01.802759,2024-09-17 18:49:59.198738,0
271,365 - Venancio Flores,-34.629967,-58.473725,Venancio Flores 3170,20,2024-04-23 22:58:01.802759,2024-09-17 18:49:59.198738,0
273,223 - GAINZA,-34.616758,-58.446751,"494 Gainza, Martin De, Gral.",15,2024-04-23 22:58:01.802759,2024-09-17 18:49:59.198738,0
275,256 - PLAZA NORUEGA,-34.562277,-58.459289,Amenabar y Mendoza,20,2024-04-23 22:58:01.802759,2024-09-17 18:49:59.198738,0
277,292 - PLAZA BOLIVIA,-34.563539,-58.436115,Olleros Av. & Del Libertador Av.,18,2024-04-23 22:58:01.802759,2024-09-17 18:49:59.198738,0
278,233 - MONROE,-34.564122,-58.469813,2519 Superi,16,2024-04-23 22:58:01.802759,2024-09-17 18:49:59.198738,0
280,222 - SIMON BOLIVAR,-34.633528,-58.449379,"1701 Fernandez Moreno, Baldomero",27,2024-04-23 22:58:01.802759,2024-09-17 18:49:59.198738,0
281,350 - Plaza Irlanda,-34.613778,-58.458315,Av. Gaona 2200,24,2024-04-23 22:58:01.802759,2024-09-17 18:49:59.198738,0
284,229 - RIGLOS,-34.631018,-58.435056,1019 Riglos,20,2024-04-23 22:58:01.802759,2024-09-17 18:49:59.198738,0
289,255 - BARRANCAS DE BELGRANO,-34.559801,-58.448314,"Sucre, Antonio Jose De, Mcal. Y Vertiz Virrey Av.",24,2024-04-23 22:58:01.802759,2024-09-17 18:49:59.214353,0
291,244 - UADE,-34.617247,-58.381627,Lima 750,15,2024-04-23 22:58:01.802759,2024-09-17 18:49:59.214353,0
299,221 - CULPINA,-34.631705,-58.466143,Culpina 121,20,2024-04-23 22:58:01.802759,2024-09-17 18:49:59.214353,0
301,309 - UTN II,-34.66036165776025,-58.4676386893849,Saraza y Mozart,20,2024-04-23 22:58:01.802759,2024-09-17 18:49:59.214353,0
302,340 - PLAZA NUEVA POMPEYA,-34.6518464,-58.415771,3817 Traful,16,2024-04-23 22:58:01.802759,2024-09-17 18:49:59.214353,0
304,395 - Agronomia II,-34.5893,-58.4848,Av. Francisco Beiró 2120,20,2024-04-23 22:58:01.802759,2024-09-17 18:49:59.214353,0
307,341 - COMUNA 4,-34.6499971,-58.42477299999999,AV PERITO MORENO 2881,12,2024-04-23 22:58:01.802759,2024-09-17 18:49:59.214353,0
308,251 - Solar de la Abadía,-34.567633,-58.436752,Maure 1819,28,2024-04-23 22:58:01.802759,2024-09-17 18:49:59.214353,0
309,298 - PLAZA DR. JUAN B. TERAN,-34.62141207128675,-58.51978098730658,Nogoya 5525,16,2024-04-23 22:58:01.802759,2024-09-17 18:49:59.214353,0
310,356 - ESTACIÓN LUGANO,-34.67948324169569,-58.47424852254685,Martiniano Leguizamón 4401,11,2024-04-23 22:58:01.802759,2024-09-17 18:49:59.214353,0
311,213 - Hospital Alvear,-34.5972098,-58.47421143,Av. Warnes 2626,16,2024-04-23 22:58:01.802759,2024-09-17 18:49:59.214353,0
316,205 - SAN MARTIN,-34.605567,-58.453475,1471 Cucha Cucha,28,2024-04-23 22:58:01.802759,2024-09-17 18:49:59.214353,0
318,285 - ESPINOSA,-34.603936,-58.457317,1785 Espinosa,19,2024-04-23 22:58:01.802759,2024-09-17 18:49:59.214353,0
322,289 - MONTAÑESES,-34.551304,-58.454181,2786 Montañeses,20,2024-04-23 22:58:01.802759,2024-09-17 18:49:59.214353,0
323,240 - ECHEVERRIA,-34.565409,-58.459298,1981 Vidal,24,2024-04-23 22:58:01.802759,2024-09-17 18:49:59.229984,0
324,280 - JURAMENTO,-34.578933,-58.4840556,5209 Juramento,15,2024-04-23 22:58:01.802759,2024-09-17 18:49:59.229984,0
327,366 - VILLA OLÍMPICA,-34.677130515662185,-58.454286054001386,Escalada 4347,11,2024-04-23 22:58:01.802759,2024-09-17 18:49:59.232571,0
329,100 - Plaza Gurruchaga,-34.593141,-58.435187,1078 Gurruchaga,20,2024-04-23 22:58:01.802759,2024-09-17 18:49:59.232571,0
330,148 -La Paternal,-34.6008306,-58.4721271,PUNTA  ARENAS  1798,20,2024-04-23 22:58:01.802759,2024-09-17 18:49:59.232571,0
333,203 - Beiro,-34.6008,-58.50335,"Beiro 3572, CABA",20,2024-04-23 22:58:01.802759,2024-09-17 18:49:59.232571,0
335,206 - Galicia,-34.615945,-58.47098,2502 Galicia,26,2024-04-23 22:58:01.802759,2024-09-17 18:49:59.232571,0
336,207 - PLAZA ARENALES,-34.5997308,-58.5111458,Nueva York 3949,28,2024-04-23 22:58:01.802759,2024-09-17 18:49:59.232571,0
340,359 - PLAZA BALCARCE,-34.54754,-58.467844,Jaramillo 2312,20,2024-04-23 22:58:01.802759,2024-09-17 18:49:59.232571,0
342,218 - Campana,-34.616813,-58.484297,1523 Campana,20,2024-04-23 22:58:01.802759,2024-09-17 18:49:59.232571,0
348,231 - Margariños Cervantes,-34.610482,-58.474369,2465 Margariños Cervantes,12,2024-04-23 22:58:01.802759,2024-09-17 18:49:59.232571,0
349,232 - Sucre y Martinez,-34.5703869,-58.4663122,Mcal. Antonio José de Sucre 3515,16,2024-04-23 22:58:01.802759,2024-09-17 18:49:59.232571,0
353,237 - Madero Office,-34.599036,-58.364695,"367 Sanchez De Thompson, Mariquita",28,2024-04-23 22:58:01.802759,2024-09-17 18:49:59.232571,0
355,242 - Plazoleta Rafael del Riego,-34.567483,-58.446381,o´higins 1327,16,2024-04-23 22:58:01.802759,2024-09-17 18:49:59.232571,0
358,249 - Balbín,-34.561486,-58.465586,2519 Conesa,20,2024-04-23 22:58:01.802759,2024-09-17 18:49:59.232571,0
359,250 - Fleni,-34.555602,-58.450479,2292 Montañeses,20,2024-04-23 22:58:01.802759,2024-09-17 18:49:59.232571,0
361,258 - Plaza J.J. Paso,-34.569187,-58.453608,1399 Moldes,20,2024-04-23 22:58:01.802759,2024-09-17 18:49:59.247795,0
362,262 - Holmberg,-34.56603251575768,-58.479879186508185,Holmberg 2819 y Nahuel Huapi,12,2024-04-23 22:58:01.802759,2024-09-17 18:49:59.247795,0
363,354 - José Martí,-34.6439,-58.463114,Eva Perón 3321,16,2024-04-23 22:58:01.802759,2024-09-17 18:49:59.247795,0
364,381 - Matienzo Y Arce,-34.570161,-58.43558,Teniente Benjamín Matienzo 1998,28,2024-04-23 22:58:01.802759,2024-09-17 18:49:59.247795,0
366,360 - Plaza Ramon Falcon,-34.6352784,-58.4825327,Cnel. Ramón L. Falcón 3992,12,2024-04-23 22:58:01.802759,2024-09-17 18:49:59.247795,0
367,287 - Belaustegui,-34.616659000738366,-58.47770598650817,Belaustegui 2910,16,2024-04-23 22:58:01.802759,2024-09-17 18:49:59.247795,0
368,378 - AGRONOMIA,-34.59807,-58.482079,4351 San Martin,12,2024-04-23 22:58:01.802759,2024-09-17 18:49:59.247795,0
369,304 - Navarro,-34.592244,-58.491797,Navarro 2625,16,2024-04-23 22:58:01.802759,2024-09-17 18:49:59.247795,0
370,305 - Plaza Martin Rodriguez,-34.590964,-58.500336,3016 Pareja,20,2024-04-23 22:58:01.802759,2024-09-17 18:49:59.247795,0
371,269 - Plaza De La Misericordia,-34.6317,-58.45534,LAUTARO 400,12,2024-04-23 22:58:01.802759,2024-09-17 18:49:59.247795,0
372,322 - MARTÍ Y DIRECTORIO,-34.636406,-58.470136,"404 Marti, Jose",20,2024-04-23 22:58:01.802759,2024-09-17 18:49:59.247795,0
373,265 - Plaza Exodo Jujeño,-34.582336918286785,-58.48108314683206,Liverpool 2812,20,2024-04-23 22:58:01.802759,2024-09-17 18:49:59.247795,0
374,367 - Eva Perón,-34.6471,-58.4698,Primera Junta 3898,16,2024-04-23 22:58:01.802759,2024-09-17 18:49:59.247795,0
375,301 - Arregui Y Terrada,-34.604597356692906,-58.48481211614322,2793 Arregui,16,2024-04-23 22:58:01.802759,2024-09-17 18:49:59.247795,0
376,324 - Las Victorias,-34.6274033,-58.48811179999999,Av. Gaona 4660,24,2024-04-23 22:58:01.802759,2024-09-17 18:49:59.247795,0
378,215 - HOSPITAL ALVAREZ,-34.623123,-58.468287,Bolivia 683,20,2024-04-23 22:58:01.802759,2024-09-17 18:49:59.264286,0
379,390 - De Los Ombues,-34.5602,-58.4281,Av. de los Ombúes 300,20,2024-04-23 22:58:01.802759,2024-09-17 18:49:59.264286,0
381,274 - Gavilán,-34.6162466,-58.4658836,Gavilán 1200,16,2024-04-23 22:58:01.802759,2024-09-17 18:49:59.264286,0
382,204 - Biarritz,-34.60543081369964,-58.477255218997016,Biarritz 2403,16,2024-04-23 22:58:01.802759,2024-09-17 18:49:59.264286,0
383,263 - Plaza Echeverria,-34.5717986,-58.48954089999999,Av. Triunvirato 5100 y Nahuel Huapi 5150,20,2024-04-23 22:58:01.802759,2024-09-17 18:49:59.264286,0
384,267 - Plaza 25 De Agosto,-34.57951881156862,-58.46183473148808,14 de julio de 1194,18,2024-04-23 22:58:01.802759,2024-09-17 18:49:59.264286,0
385,268 - Plaza Aristóbulo Del Valle,-34.606159914753725,-58.49314134520765,Campana & Marcos Sastre  ,16,2024-04-23 22:58:01.802759,2024-09-17 18:49:59.264286,0
386,277 - Coghlan,-34.5654,-58.4759,2647 Estomba,8,2024-04-23 22:58:01.802759,2024-09-17 18:49:59.264286,0
387,278 - Donato Alvarez,-34.602028,-58.465568,"1540 Garcia, Juan Agustin",16,2024-04-23 22:58:01.802759,2024-09-17 18:49:59.264286,0
392,297 - TRONADOR Y GARCÍA DEL RÍO,-34.554581,-58.485381,Tronador y Garcia del Rio,16,2024-04-23 22:58:01.802759,2024-09-17 18:49:59.264286,0
393,300 - Jose Artigas,-34.5902732694463,-58.4669322018588,Av. del Campo 1301,28,2024-04-23 22:58:01.802759,2024-09-17 18:49:59.264286,0
395,303 - Huaura,-34.596849288941584,-58.45327985794869,Huaura 1405 y Fitz Roy,16,2024-04-23 22:58:01.802759,2024-09-17 18:49:59.264286,0
400,313 - De Los Incas,-34.57899,-58.46982,Av. de los Incas 4138,20,2024-04-23 22:58:01.802759,2024-09-17 18:49:59.264286,0
403,316 - Buenos Aires,-34.6446835804428,-58.39387590287583,Suarez 3150,32,2024-04-23 22:58:01.802759,2024-09-17 18:49:59.264286,0
407,330 - Parque Avellaneda,-34.6424248,-58.478266,Remedios 3895,16,2024-04-23 22:58:01.802759,2024-09-17 18:49:59.279385,0
408,364 - CERRETTI Y MANUELA PEDRAZA,-34.56912,-58.50025,Ceretti 3407,16,2024-04-23 22:58:01.802759,2024-09-17 18:49:59.280640,0
412,372 - VILLA SOLDATI,-34.6604476,-58.43201680000001,Carlos María Ramírez 2510,12,2024-04-23 22:58:01.802759,2024-09-17 18:49:59.281052,0
413,382 - MERCADO DE HACIENDA MATADEROS,-34.66181712635796,-58.50133009838903,Av. Lisandro de la Torre 2319,8,2024-04-23 22:58:01.802759,2024-09-17 18:49:59.281052,0
414,385 - Franklin,-34.6112804,-58.4500434,Franklin 1100,16,2024-04-23 22:58:01.802759,2024-09-17 18:49:59.281052,0
416,257 - Plaza Francisco Ramirez,-34.553262,-58.469133,"2700 Pedraza, Manuela",28,2024-04-23 22:58:01.802759,2024-09-17 18:49:59.281052,0
417,127 - PLAZA LEONARDO N. ALEM,-34.57634,-58.50248,Cochrane 2407,20,2024-04-23 22:58:01.802759,2024-09-17 18:49:59.281052,0
418,345 - Plaza Mafalda,-34.5809383,-58.4445804,Conde & Concepción Arenal,16,2024-04-23 22:58:01.802759,2024-09-17 18:49:59.281052,0
420,375 - Ciudad Universitaria I,-34.5446,-58.4396,INTENDENTE GUIRALDES 2160 - PABELLÓN I,16,2024-04-23 22:58:01.802759,2024-09-17 18:49:59.281052,0
422,379 - PARQUE SARMIENTO II,-34.56454,-58.50289,Alfonsina Storni 3771,16,2024-04-23 22:58:01.802759,2024-09-17 18:49:59.281052,0
423,043 - PLAZA ALBERDI,-34.559255,-58.487772,Crisólogo Larralde 4544,12,2024-04-23 22:58:01.802759,2024-09-17 18:49:59.281052,0
424,387 - Luna,-34.639807,-58.39905,Luna 301,12,2024-04-23 22:58:01.802759,2024-09-17 18:49:59.281052,0
425,394 - Av. La Plata,-34.643012510740405,-58.42284285277861,Av. La Plata 2400,20,2024-04-23 22:58:01.802759,2024-09-17 18:49:59.281052,0
426,396 - PLAZA ALBERTI,-34.5557,-58.4579,ARCOS 2665,20,2024-04-23 22:58:01.802759,2024-09-17 18:49:59.281052,0
427,397 - PARQUE SANTOJANNI,-34.648402,-58.5136448,ACASSUSO 6373,16,2024-04-23 22:58:01.802759,2024-09-17 18:49:59.281052,0
428,225 - HOSPITAL TORNU,-34.587458,-58.4739506,1052 Avalos,20,2024-04-23 22:58:01.802759,2024-09-17 18:49:59.281052,0
429,201 - PLAZA EJERCITO DE LOS ANDES,-34.63897407331851,-58.51010241799404,Av. Rivadavia y Albariño,16,2024-04-23 22:58:01.802759,2024-09-17 18:49:59.297610,0
431,362 - PARQUE DE LA MEMORIA,-34.542628,-58.436913,Av. Costanera Rafael Obligado 7200,20,2024-04-23 22:58:01.802759,2024-09-17 18:49:59.297610,0
432,187 - Jose Maria Moreno,-34.619879,-58.435801,141 Jose Maria Moreno,28,2024-04-23 22:58:01.802759,2024-09-17 18:49:59.297610,0
433,273 - Plazoleta Colombia,-34.637697,-58.373726,1619 Brandsen,24,2024-04-23 22:58:01.802759,2024-09-17 18:49:59.297610,0
434,247 - PLAZA LUCIO DEMARE,-34.54569,-58.46514,O`Higgins 3750,20,2024-04-23 22:58:01.802759,2024-09-17 18:49:59.297610,0
435,227 -Club Ciudad de Buenos Aires,-34.544503,-58.459499,Miguel Sanchez y Av Libertadores,23,2024-04-23 22:58:01.802759,2024-09-17 18:49:59.297610,0
436,253 - Plaza Colegiales,-34.57653,-58.44349,Tte. Benjamin Matienzo 2886,16,2024-04-23 22:58:01.802759,2024-09-17 18:49:59.297610,0
440,142 - ARMENIA,-34.5906475,-58.42889899999999,ARMENIA 1525 y GORRITI,16,2024-04-23 22:58:01.802759,2024-09-17 18:49:59.297610,0
441,016 - Legislatura,-34.609801,-58.3748,"169 Peru & Roca, Julio A., Presidente Diagonal Sur Av.",20,2024-04-23 22:58:01.802759,2024-09-17 18:49:59.297610,0
444,061 - Ministerio de Economia,-34.608936,-58.370716,"Balcarce e Yrigoyen, Hipolito Av.",24,2024-04-23 22:58:01.802759,2024-09-17 18:49:59.297610,0
448,393 - Barrio 31,-34.58209,-58.3788,Islas Galápagos 2800,32,2024-04-23 22:58:01.802759,2024-09-17 18:49:59.297610,0
449,352 - San Jose de Flores,-34.62883578,-58.463297377,Av. Rivadavia 6955,24,2024-04-23 22:58:01.802759,2024-09-17 18:49:59.297610,0
453,028 - Plaza de la Bandera,-34.6294802,-58.49448539999999,Av. Gaona 5181,20,2024-04-23 22:58:01.802759,2024-09-17 18:49:59.297610,0
454,176 - Plaza Derechos del hombre,-34.63403,-58.50694,CORTINA 551,12,2024-04-23 22:58:01.802759,2024-09-17 18:49:59.297610,0
455,039 - Plaza Don Bosco,-34.62652,-58.50805,Elpidio Gonzalez 5181,16,2024-04-23 22:58:01.802759,2024-09-17 18:49:59.297610,0
457,110 - PLAZA CD DE BANFF,-34.62805,-58.52174,ROMA 786,16,2024-04-23 22:58:01.802759,2024-09-17 18:49:59.313944,0
458,219 - Parque Chacabuco II,-34.63642574842393,-58.44400690036916,AV. ASAMBLEA 1400,27,2024-04-23 22:58:01.802759,2024-09-17 18:49:59.314296,0
460,133 - BEIRO Y SEGUROLA,-34.6075,-58.51193,Segurola 3194,16,2024-04-23 22:58:01.802759,2024-09-17 18:49:59.314296,0
461,106 - MOSCONI Y CONSTITUYENTES,-34.58088,-58.49363,CONSTITUYENTES 4710,20,2024-04-23 22:58:01.802759,2024-09-17 18:49:59.314296,0
464,377 - CIUDAD UNIVERSITARIA III,-34.541,-58.4441,Intendente Guiraldes 2160 - Pabellón III,28,2024-04-23 22:58:01.802759,2024-09-17 18:49:59.314296,0
465,192 - HOSPITAL SIRIO,-34.5904625,-58.5071166,Gabriela Mistral 3325 y Campana,12,2024-04-23 22:58:01.802759,2024-09-17 18:49:59.314296,0
466,333 - PARQUE DE LA ESTACIÓN,-34.608096,-58.41183969999999,Dr. Tomás Manuel de Anchorena 170,20,2024-04-23 22:58:01.802759,2024-09-17 18:49:59.314296,0
467,328 - SARMIENTO II,-34.6055135,-58.3958925,Sarmiento 2037,12,2024-04-23 22:58:01.802759,2024-09-17 18:49:59.314296,0
468,084 - TEATRO PICADERO,-34.6042288,-58.3937375,Riobamba 403,8,2024-04-23 22:58:01.802759,2024-09-17 18:49:59.314296,0
469,062 - PARQUE ONEGA,-34.5934185,-58.513837,Av. Gral.Mosconi 3780,16,2024-04-23 22:58:01.802759,2024-09-17 18:49:59.314296,0
471,173 - EL LIBERTADOR,-34.5947293,-58.5033086,Av. San Martín 6220,12,2024-04-23 22:58:01.802759,2024-09-17 18:49:59.314296,0
472,310 - FREIRE II,-34.5751286,-58.45275609999999,Tte. Gral Ramón Freire 1003,16,2024-04-23 22:58:01.802759,2024-09-17 18:49:59.314296,0
473,216 - EMILIO LAMARCA,-34.6134032,-58.4933583,EMILIO LAMARCA 2066,12,2024-04-23 22:58:01.802759,2024-09-17 18:49:59.314296,0
474,224 - BAIGORRIA,-34.6108915,-58.50301999999999,Baigorria 4101,16,2024-04-23 22:58:01.802759,2024-09-17 18:49:59.314296,0
475,238 - PLAZA LAS TOSCANERAS,-34.6165412,-58.5260181,Ramón Lista 5500 (y Moliere),12,2024-04-23 22:58:01.802759,2024-09-17 18:49:59.314296,0
476,279 - PLAZA MONTE CASTRO,-34.6182924,-58.4985253,Gualeguaychú 1900,12,2024-04-23 22:58:01.802759,2024-09-17 18:49:59.314296,0
477,311 - SEC. DE INNOVACION Y TRANSFORMACIÓN,-34.6350046,-58.39505390000001,Av. Caseros 2309,12,2024-04-23 22:58:01.802759,2024-09-17 18:49:59.330018,0
478,015 - AMENABAR,-34.572056,-58.44752359999999,Teodoro García 2613,12,2024-04-23 22:58:01.802759,2024-09-17 18:49:59.330018,0
479,347 - CARABOBO,-34.6262877,-58.45530009999999,Pumacahua 9,24,2024-04-23 22:58:01.802759,2024-09-17 18:49:59.332172,0
480,353 - PLAZA VÉLEZ SARSFIELD,-34.6293335,-58.4836028,Chivilcoy 400,12,2024-04-23 22:58:01.802759,2024-09-17 18:49:59.332172,0
481,369 - PLAZA LARRAZABAL,-34.6430378,-58.5127001,AV. LARRAZABAL 380,16,2024-04-23 22:58:01.802759,2024-09-17 18:49:59.332172,0
482,376 - PASEO DE LA COSTANERA,-34.550468,-58.430024,Av. Costanera Rafael Obligado 6200,12,2024-04-23 22:58:01.802759,2024-09-17 18:49:59.332172,0
483,175 - PLAZA MACKENNA,-34.5436888,-58.4771259,CRAMER 4500,12,2024-04-23 22:58:01.802759,2024-09-17 18:49:59.332172,0
484,295 - SUPERÍ,-34.5554843,-58.4768041,NUÑEZ 3486,12,2024-04-23 22:58:01.802759,2024-09-17 18:49:59.332172,0
485,230 - PASEO DE LA COSTANERA II,-34.553465,-58.42144,Av. Costanera Rafael Obligado 5100,12,2024-04-23 22:58:01.802759,,1
486,220 - PLAZA FELIX LIMA,-34.5420905,-58.47056989999999,RAMALLO 2200,12,2024-04-23 22:58:01.802759,2024-09-17 18:49:59.332172,0
487,239 - AVENIDA CRAMER,-34.55813699999999,-58.46725929999999,Av. Cramer 2900,12,2024-04-23 22:58:01.802759,2024-09-17 18:49:59.332172,0
488,234 - AVENIDA TRIUNVIRATO,-34.5657087,-58.4952184,Av. Triunvirato 5752,12,2024-04-23 22:58:01.802759,2024-09-17 18:49:59.332172,0
489,288 - SECRETARÍA DE DEPORTES,-34.5476039,-58.4565662,AV LIBERTADOR 7100,16,2024-04-23 22:58:01.802759,2024-09-17 18:49:59.332172,0
490,245 - COSTANERA NORTE,-34.56477054,-58.402021,AV. Costanera Rafael del Obligado 1700,16,2024-04-23 22:58:01.802759,2024-09-17 18:49:59.332172,0
491,266 - PLAZA SABATTINI,-34.6122963,-58.44329500000001,COLPAYO 699,8,2024-04-23 22:58:01.802759,2024-09-17 18:49:59.332172,0
492,325 - MEDRANO,-34.6097105,-58.4215633,3905 Bartolomé Mitre,20,2024-04-23 22:58:01.802759,2024-09-17 18:49:59.332172,0
493,208 - NICASIO OROÑO,-34.5967435,-58.4594031,Nicasio Oroño 2598,8,2024-04-23 22:58:01.802759,2024-09-17 18:49:59.332172,0
494,314 - ALLENDE,-34.6147875,-58.5116722,Allende 2794,12,2024-04-23 22:58:01.802759,2024-09-17 18:49:59.348518,0
496,052 - CAMPANA II,-34.5831596,-58.5131664,Cochrane 3298 (y Campana),12,2024-04-23 22:58:01.802759,2024-09-17 18:49:59.348808,0
497,307 - CERRETTI,-34.5744245,-58.4962318,Ceretti 2892,12,2024-04-23 22:58:01.802759,2024-09-17 18:49:59.348808,0
498,055 - HABANA,-34.5865976,-58.4949585,Gral. José Gervasio Artigas 4298 (y Habana),12,2024-04-23 22:58:01.802759,2024-09-17 18:49:59.348808,0
499,286 - FILOSOFIA Y LETRAS,-34.62855635090828,-58.4468139680066,José Bonifacio 1407,16,2024-04-23 22:58:01.802759,2024-09-17 18:49:59.352609,0
500,235 - COMUNA 13,-34.5532117,-58.46422429999999,Ibera 2377,16,2024-04-23 22:58:01.802759,2024-09-17 18:49:59.352609,0
501,020 - GRECIA,-34.5492488,-58.46194079999999,Grecia 3290,16,2024-04-23 22:58:01.802759,2024-09-17 18:49:59.352609,0
502,296 - SAN ISIDRO LABRADOR,-34.5406752,-58.4752251,Av. San Isidro Labrador 4850,16,2024-04-23 22:58:01.802759,2024-09-17 18:49:59.352609,0
504,214 - MORÓN,-34.6247196,-58.47518040000001,Morón 3089,12,2024-04-23 22:58:01.802759,2024-09-17 18:49:59.352609,0
505,337 - AV. J. B. JUSTO,-34.6226411,-58.48202029999999,Emilio Lamarca 915 (y Av. Juan B. Justo),16,2024-04-23 22:58:01.802759,2024-09-17 18:49:59.352609,0
506,040 - PARQUE SALGUERO,-34.569435,-58.399369,Av. Costa Salguero 1222,20,2024-04-23 22:58:01.802759,2024-09-17 18:49:59.352609,0
507,271 - VILLA SOLDATI II,-34.673248,-58.45531939999999,23 de junio 4249,24,2024-04-23 22:58:01.802759,2024-09-17 18:49:59.352609,0
508,170 - RAFAELA,-34.6391718,-58.4947858,Rafaela 4811,12,2024-04-23 22:58:01.802759,2024-09-17 18:49:59.352609,0
509,386 - VELEZ SARSFIELD,-34.6336384,-58.48981,Av. Carrasco 214,12,2024-04-23 22:58:01.802759,2024-09-17 18:49:59.352609,0
511,284 - AV. FOREST,-34.575441,-58.462689,Delgado 1569 (y Av. Forest),16,2024-04-23 22:58:01.802759,2024-09-17 18:49:59.364614,0
512,195 - PARQUE CHAS,-34.5816148,-58.4750569,Av. De los Incas 4535,20,2024-04-23 22:58:01.802759,2024-09-17 18:49:59.366945,0
513,308 - SAN MARTIN II,-34.5971297,-58.490739,Av. San Martín 5129,12,2024-04-23 22:58:01.802759,2024-09-17 18:49:59.367468,0
515,294 - PLAZOLETA RÍO DE LA PLATA,-34.57424606980564,-58.41465533223049,Av. Sarmiento 500,15,2024-04-23 22:58:01.802759,2024-09-17 18:49:59.367468,0
516,368 - PLAZA DE LA SHOÁ,-34.5709984,-58.4233469,Av. Del Libertador 3899,19,2024-04-23 22:58:01.802759,2024-09-17 18:49:59.367468,0
517,332 - PACÍFICO II,-34.5745008,-58.42481399999999,Av. Int. Bullrich 300,16,2024-04-23 22:58:01.802759,2024-09-17 18:49:59.367468,0
518,329 - LAS CAÑITAS,-34.5738986,-58.43178200000001,Clay 2818,12,2024-04-23 22:58:01.802759,2024-09-17 18:49:59.367468,0
519,053 - AV. DEL LIBERTADOR ,-34.59291496187579,-58.3754427116394,Av. Del Libertador 100,20,2024-04-23 22:58:01.802759,2024-09-17 18:49:59.367468,0
520,180 - PARQUE OLIMPICO,-34.67263155698435,-58.445517873322615,Av. Coronel Roca 5252 (dentro del Parque Olímpico). ,20,2024-04-23 22:58:01.802759,2024-09-17 18:49:59.367468,0
521,226 - AV. WARNES,-34.59646530000001,-58.4663841,Av. Warnes 2150,16,2024-04-23 22:58:01.802759,2024-09-17 18:49:59.367468,0
522,119 - PLAZOLETA BENEDIT,-34.6022435,-58.4425482,Av. Warnes y Av. R. Scalabrini Ortiz,16,2024-04-23 22:58:01.802759,2024-09-17 18:49:59.367468,0
524,338 - AV. CABILDO,-34.557933,-58.4607027,Av. Cabildo 2586,12,2024-04-23 22:58:01.802759,2024-09-17 18:49:59.367468,0
525,317 - ESCUELA RAGGIO,-34.536691,-58.4668133,Av. Libertador 8620 (y Pico),16,2024-04-23 22:58:01.802759,2024-09-17 18:49:59.367468,0
526,088 - NUÑEZ ,-34.54162804074317,-58.46340407324712,Comodoro Martín Rivadavia 1630,12,2024-04-23 22:58:01.802759,2024-09-17 18:49:59.380638,0
527,068 - AV. CORDOBA,-34.588727,-58.43838599999999,Av. Cordoba 5403,11,2024-04-23 22:58:01.802759,2024-09-17 18:49:59.382163,0
528,042 - Skate Park Villa Luro,-34.6367055,-58.49528569999999, Av. Rivadavia 9301,16,2024-04-23 22:58:01.802759,2024-09-17 18:49:59.383639,0
529,011 - RIO DE JANEIRO,-34.61325931284073,-58.43011879451216,Río de Janeiro 205,18,2024-04-23 22:58:01.802759,2024-09-17 18:49:59.383639,0
530,031 - PARQUE RIVADAVIA,-34.61651103390999,-58.43235024128228,Av Rivadavia 4950,20,2024-04-23 22:58:01.802759,2024-09-17 18:49:59.383639,0
531,048 - JOSE AMALFITANI,-34.63362230949344,-58.52125773107453,Av. Juan Bautista Justo 6383,20,2024-04-23 22:58:01.802759,2024-09-17 18:49:59.383639,0
532,072 - INSTITUTO POLITÉCNICO MODELO,-34.573033051099245,-58.5039082871025,Av Constituyentes 5880,20,2024-04-23 22:58:01.802759,2024-09-17 18:49:59.383639,0
533,077 - CRISOLOGO LARRALDE,-34.56119069896605,-58.4920304128975,Galván 3601,20,2024-04-23 22:58:01.802759,2024-09-17 18:49:59.383639,0
534,081 - PARQUE DE LAS CIENCIAS,-34.5829625,-58.42997930000001,Soler 5300 ,24,2024-04-23 22:58:01.802759,2024-09-17 18:49:59.383639,0
535,090 - HONORIO PUEYRREDON,-34.60251720000001,-58.44965897301637,Honorio Pueyrredón 1653,20,2024-04-23 22:58:01.802759,2024-09-17 18:49:59.383639,0
536,019 - PLAZA  SAN MARTIN,-34.5954737,-58.37748229999999,Av. Santa Fe 716,20,2024-04-23 22:58:01.802759,2024-09-17 18:49:59.383639,0
537,389 - Av. ELCANO,-34.57080828710083,-58.45806148960133,Av. ELCANO 3000,10,2024-04-23 22:58:01.802759,2024-09-17 18:49:59.383639,0
538,047 - PARQUE DE LA INNOVACIÓN,-34.545091,-58.451432,Av. G. Udaondo 1146,16,2024-04-23 22:58:01.802759,2024-09-17 18:49:59.383639,0
2,002 - Retiro I,-34.59242413,-58.37470988999999,AV. Dr. José María Ramos Mejía 1300,40,2024-09-17 18:49:58.975684,,1
3,003 - ADUANA,-34.61220714255728,-58.369129063789,Av. Paseo Colón 380,28,2024-09-17 18:49:58.975684,,1
4,004 - Plaza Roma,-34.6030082348981,-58.36885646243477,Av. Corrientes 100,20,2024-09-17 18:49:58.975684,,1
5,005 - Plaza Italia,-34.5805497,-58.4209542,Av. Sarmiento 2601,42,2024-09-17 18:49:58.975684,,1
6,006 - Parque Lezama,-34.628526,-58.369758,"Avenida Martin Garcia, 295",20,2024-09-17 18:49:58.975684,,1
7,007 - OBELISCO,-34.606498,-58.381098,CARLOS PELEGRINI 215,24,2024-09-17 18:49:58.975684,,1
8,008 - Congreso,-34.6094218,-58.3893364,"Cevallos, Virrey& Yrigoyen, Hipolito Av.",24,2024-09-17 18:49:58.975684,,1
9,009 - Parque Las Heras,-34.585443,-58.407741,"2300 Diaz, Cnel. Av. & French",24,2024-09-17 18:49:58.975684,,1
12,012 - Plaza Vicente Lopez,-34.5927096,-58.388807,Parana & Juncal,16,2024-09-17 18:49:58.975684,,1
13,013 - ONCE,-34.61009,-58.406,Av. Pueyrredon & Av. Rivadavia,30,2024-09-17 18:49:58.975684,,1
14,014 - Pacifico,-34.577424,-58.426387,"Santa Fe Av. & Bullrich, Int. Av.",30,2024-09-17 18:49:58.975684,,1
17,017 - Plaza Almagro,-34.6064101,-58.4187306,"441 Bulnes & Peron, Juan Domingo, Tte. General",20,2024-09-17 18:49:58.975684,,1
21,021 - Parque Patricios,-34.640111,-58.406432,Iguazu & Uspallata,24,2024-09-17 18:49:58.975684,,1
22,022 - Arenales,-34.5938629,-58.3825498,Cerrito & Arenales,20,2024-09-17 18:49:58.975684,,1
24,024 - ALSINA,-34.610583,-58.38089430000001,Adolfo Alsina& Bernardo De Irigoyen,18,2024-09-17 18:49:58.975684,,1
25,025 - Plaza Guemes,-34.5894269,-58.4161178,"Salguero, Jeronimo & Mansilla, Lucio Norberto, General",30,2024-09-17 18:49:58.975684,,1
26,026 - JUANA MANSO I,-34.600752,-58.3638723,"Manso Juana & De La Barra, Emma",30,2024-09-17 18:49:58.975684,,1
27,027 - Montevideo,-34.599068,-58.3900887,Cordoba Av. & Montevideo,20,2024-09-17 18:49:58.975684,,1
29,029 - Parque Centenario,-34.6079414,-58.4335573,Av. Patricias Argentinas & Estivao,29,2024-09-17 18:49:58.975684,,1
32,032 - Catedral,-34.60674458045258,-58.37365550287733,Bartolomé Mitre & San Martín,18,2024-09-17 18:49:58.975684,,1
33,033 - Facultad de Medicina,-34.5970909,-58.3989807,Pres. José Evaristo Uriburu 987,20,2024-09-17 18:49:58.975684,,1
35,035 - INGENIERO BUTTY,-34.5964246,-58.371847,Ing. E. Butty 291,32,2024-09-17 18:49:58.975684,,1
36,036 - MAIPÚ,-34.6010599,-58.3745346,Tucumán 536,12,2024-09-17 18:49:58.975684,,1
38,038 - Plaza Libertad,-34.5970497,-58.382840300000005,Cerrito 990 y Av. Marcelo T. De Alvear,20,2024-09-17 18:49:58.975684,,1
41,041 - PARQUE PATRICIOS II,-34.6371232,-58.40588830000001,Av Caseros 3015,18,2024-09-17 18:49:58.975684,,1
43,334 - CENTRO DE EXPOSICIONES,-34.584018,-58.38992100000001,2133 Figueroa Alcorta,28,2024-09-17 18:49:58.975684,,1
44,044 - Ecoparque,-34.5755148,-58.4138829,"Av. Del Libertador, 3260",20,2024-09-17 18:49:58.975684,,1
45,045 - Uruguay,-34.6018635,-58.38669339999999,561 Uruguay & Av. Tucuman,20,2024-09-17 18:49:58.975684,,1
46,046 - Chile,-34.6163729,-58.37436969999998,Perú 718,18,2024-09-17 18:49:58.975684,,1
48,034 - Colonia Express,-34.6236397,-58.3632448,Elvira Rawson de Dellepiane 150,16,2024-09-17 18:49:58.975684,,1
49,049 - 33 Orientales,-34.629176084274704,-58.42481977731553,Constitución 4288,16,2024-09-17 18:49:58.975684,,1
50,050 - Hospital Rivadavia,-34.5837348,-58.4010798,2516 Pereyra Lucena,20,2024-09-17 18:49:58.975684,,1
54,054 - Acuña de Figueroa,-34.5982097,-58.422069400000005,Lavalle 4015,20,2024-09-17 18:49:58.975684,,1
56,056 - Plaza Palermo Viejo,-34.588567,-58.42599899999999,Costa Rica & Armenia,20,2024-09-17 18:49:58.975684,,1
57,057 - BELGRANO,-34.61324972988651,-58.37064512890549,Balcarce 482,12,2024-09-17 18:49:58.975684,,1
58,058 - Ministro Carranza,-34.5752773,-58.434688300000005,Santa Fe Av. & Dorrego,20,2024-09-17 18:49:58.975684,,1
59,018 - Independencia,-34.617654,-58.380565,Idependencia y Bernardo de Irigoyen,20,2024-09-17 18:49:58.975684,,1
60,060 - 25 De Mayo,-34.6016509,-58.37107900000001,527 25 De Mayo,20,2024-09-17 18:49:58.975684,,1
61,098 - BENITO JUAREZ,-34.6189273,-58.50517690000001, Benito Juarez 2231,12,2024-09-17 18:49:58.975684,,1
63,063 - Reconquista,-34.59977772506695,-58.37468663054962,Viamonte 555,28,2024-09-17 18:49:58.975684,,1
64,064 - RIOBAMBA,-34.5936508,-58.3941087,Riobamba 1264 & Juncal,20,2024-09-17 18:49:58.975684,,1
65,065 - Julián Álvarez,-34.5873124,-58.4157873,3822 Guemes,20,2024-09-17 18:49:58.975684,,1
66,066 - Billinghurst,-34.5945475,-58.4138713,3508 Carcova,20,2024-09-17 18:49:58.975684,,1
68,105 - PARQUE SAAVEDRA,-34.552148,-58.480464,García del Río 3590,16,2024-09-17 18:49:58.975684,,1
69,069 - Ecuador,-34.5961006,-58.4046092,"1226 Ecuador & Mansilla, Lucio Norberto, General",16,2024-09-17 18:49:58.975684,,1
70,070 - ARAOZ,-34.5926862,-58.4260597,1413 Araoz & Gorriti CABA,24,2024-09-17 18:49:58.975684,,1
71,071 - CERRITO,-34.6026673,-58.383355900000005,Libertad & lavalle,30,2024-09-17 18:49:58.975684,,1
73,073 - Ruy Díaz de Guzmán,-34.6306814,-58.3718235,Avenida Martin Garcia y Ruy Díaz de Guzmán,20,2024-09-17 18:49:58.975684,,1
74,074 - INSTITUTO LELOIR,-34.60439,-58.43454,Juana De Ibarbourou & Av Patricias Argentinas,30,2024-09-17 18:49:58.975684,,1
75,075 - Plaza Primero de Mayo,-34.6122976,-58.3989871,238 Pichincha,20,2024-09-17 18:49:58.975684,,1
76,076 - Ayacucho,-34.6074084,-58.39505479999999,"Ayacucho &Peron, Juan Domingo, Tte. General",20,2024-09-17 18:49:58.975684,,1
77,109 - ESTACION PUEYRREDON,-34.581135,-58.501487,Bolivia 5071,16,2024-09-17 18:49:58.975684,,1
79,079 - AZUCENA VILLAFLOR,-34.61189,-58.36393000000001,"Villaflor, Azucena & Dealessi, Pierina",30,2024-09-17 18:49:58.975684,,1
80,080 - VALLE,-34.6245807,-58.43412319999999,Valle 486,12,2024-09-17 18:49:58.975684,,1
82,082 - HOSPITAL ITALIANO,-34.6078917,-58.4263947,394 Rawson & Potosi,20,2024-09-17 18:49:58.975684,,1
83,083 - Paraná,-34.603269,-58.3893728,1590 Lavalle,28,2024-09-17 18:49:58.975684,,1
85,085 - AGUERO,-34.5948057,-58.4091784,"Aguero & Mansilla, Lucio Norberto, General",20,2024-09-17 18:49:58.975684,,1
86,086 - SAAVEDRA,-34.6212681,-58.4016808,1019 Saavedra,20,2024-09-17 18:49:58.975684,,1
87,087 - Guayaquil,-34.619845,-58.4314942,Guayaquil & Doblas,16,2024-09-17 18:49:58.975684,,1
89,089 - Cabello,-34.5825475,-58.4056671,3082 Cabello,20,2024-09-17 18:49:58.975684,,1
91,091 - Pasco,-34.6174482,-58.397602,708 Pasco & Chile,24,2024-09-17 18:49:58.975684,,1
92,092 - Salcedo,-34.6316444,-58.4053386,2908 Salcedo & Dean Funes,20,2024-09-17 18:49:58.975684,,1
93,093 - CARLOS CALVO,-34.620798,-58.3944635,Sarandi 1010,20,2024-09-17 18:49:58.975684,,1
94,094 - GÚZMAN,-34.591511,-58.44965199999999,Av Guzman 129 & Leiva,29,2024-09-17 18:49:58.975684,,1
96,096 - Carlos Gardel,-34.6027814,-58.4116586,3302 Guardia Vieja & Aguero,16,2024-09-17 18:49:58.975684,,1
98,037- Claudia Pía Baudracco,-34.6081643,-58.3779002,Esmeralda y Rivadavia,16,2024-09-17 18:49:58.975684,,1
99,099 - Malabia,-34.5960961,-58.43540800000001,780 Malabia & Loyola,20,2024-09-17 18:49:58.975684,,1
101,101 - Fitz Roy,-34.5891857,-58.4424397,Fitz Roy  1092 & Loyola,20,2024-09-17 18:49:58.975684,,1
102,102 - ROSETI,-34.5851209,-58.4492989,ROSETI 390,20,2024-09-17 18:49:58.975684,,1
104,104 - Federico Lacroze,-34.587617,-58.45521200000001,Av. Guzman 1100 & Av. Corrientes,30,2024-09-17 18:49:58.975684,,1
107,107 - HOSPITAL GARRAHAN,-34.63037718,-58.39584399999999,Brasil 2290,16,2024-09-17 18:49:58.975684,,1
111,111 - MACACHA GUEMES,-34.6054877,-58.3646858,Macacha Guemes 350,30,2024-09-17 18:49:58.975684,,1
112,112 - 9 de Julio,-34.612075,-58.38038400000001,Bernardo Irigoyen 320,20,2024-09-17 18:49:58.975684,,1
114,114 - TORRE MACRO,-34.59398891976011,-58.37142444536896, Av. Eduardo Madero 1180,12,2024-09-17 18:49:58.975684,,1
116,116 - HOSPITAL ALEMÁN,-34.5921708,-58.4025894,Beruti & Ecuador,12,2024-09-17 18:49:58.975684,,1
117,117 - HUMBERTO 1°,-34.61955283137281,-58.37315930476108,Av. Carlos Calvo 513,20,2024-09-17 18:49:58.975684,,1
118,118 - MEXICO,-34.6170196,-58.4026531,Saavedra & Mexico,20,2024-09-17 18:49:58.975684,,1
120,120 - HOSPITAL RAMOS MEJIA,-34.617509,-58.409287600000006,3084 Agrelo,19,2024-09-17 18:49:58.975684,,1
121,121 - YATAY,-34.6011732,-58.4285093,925 Yatay& Humahuaca,20,2024-09-17 18:49:58.975684,,1
122,122 - COSTA RICA,-34.5915614,-58.41981629999999,COSTA RICA 4060,24,2024-09-17 18:49:58.975684,,1
124,124 - UGARTECHE,-34.580538,-58.41196500000001,3050 Ugarteche,20,2024-09-17 18:49:58.975684,,1
126,126 - Ministerio de Justicia y Seguridad,-34.63922546953217,-58.36958898591382,Olavarría 1201,16,2024-09-17 18:49:58.975684,,1
128,128 - PARQUE DEL BAJO,-34.60515159,-58.36882117,Tte. Gral. Juan Domingo Perón 133,28,2024-09-17 18:49:58.975684,,1
130,130 - RETIRO II,-34.5917376,-58.37436403,Av. Dr. José María Ramos Mejía 1350,40,2024-09-17 18:49:58.975684,,1
131,131- HOSPITAL DE CLÍNICAS,-34.5984043,-58.39901580000001,"Uriburu Jose E., Pres. & Paraguay",16,2024-09-17 18:49:58.975684,,1
132,132 - CORRIENTES,-34.6033685,-58.372763,Reconquista & Corrientes Av.,12,2024-09-17 18:49:58.975684,,1
134,134 - SOLDADO DE LA FRONTERA,-34.683188,-58.468952,Ana Díaz 5899,12,2024-09-17 18:49:58.975684,,1
135,135 - MARCELO T. DE ALVEAR,-34.5976425,-58.378363,Esmeralda & Paraguay,20,2024-09-17 18:49:58.975684,,1
137,137 - AZOPARDO Y CHILE,-34.6155977,-58.3674923,AZOPARDO 700,24,2024-09-17 18:49:58.975684,,1
138,138 - Hospital Britanico,-34.6353595,-58.3876724,153 Perdriel,12,2024-09-17 18:49:58.975684,,1
144,144 - PUEYRREDÓN,-34.6018744,-58.4060944,684 Boulogne Sur Mer & Tucuman,20,2024-09-17 18:49:58.975684,,1
146,146 - Hospital Francés,-34.6221118,-58.40784190000001,"3024 Calvo, Carlos",20,2024-09-17 18:49:58.975684,,1
148,323 - Parque Avellaneda II,-34.6451767192088,-58.484555279762255,Av. Directorio 4295 ,16,2024-09-17 18:49:58.975684,,1
149,149 - LIMA,-34.6153266,-58.38136419999999,México & Lima,16,2024-09-17 18:49:58.975684,,1
150,150 - RODRIGO BUENO,-34.6187547,-58.3554654,Av. España 2200,36,2024-09-17 18:49:58.975684,,1
152,152 - JULIETA LANTERI,-34.6181645,-58.3596311,"Vera Peñaloza, Rosario 599 & Lanteri Julieta",28,2024-09-17 18:49:58.975684,,1
153,153 - JUAN MANUEL DE BLANES,-34.6310284,-58.36288800000001,Av. Almirante Brown 653,20,2024-09-17 18:49:58.975684,,1
155,155 - Parque José Evaristo Uriburu,-34.645082199430064,-58.41749173359584, Quilmes 491,12,2024-09-17 18:49:58.975684,,1
156,156 - Plaza Alemania,-34.5775895,-58.407469600000006,2939 Cavia,20,2024-09-17 18:49:58.975684,,1
158,158 - VILLARROEL,-34.592735,-58.4450697,1321 Villarroel & Humboldt CABA,20,2024-09-17 18:49:58.975684,,1
161,161 - Humahuaca,-34.6020779,-58.4196761,3912 Humahuaca,20,2024-09-17 18:49:58.975684,,1
162,162 - LARREA Y BARTOLOMÉ MITRE,-34.608985,-58.401924,80 Larrea,20,2024-09-17 18:49:58.975684,,1
163,163 - ONCE II,-34.6095663,-58.4064308,Bartolome Mitre & Av. Puyrredon,29,2024-09-17 18:49:58.975684,,1
164,164 - FACULTAD DE INGENIERIA,-34.617301,-58.3698984,AV. PASEO COLÓN 811,20,2024-09-17 18:49:58.975684,,1
165,165 - PLAZA MONSEÑOR MIGUEL DE ANDREA,-34.597048,-58.407614,Dr Tomas Manuel De  Anchorena &  Jose A. Cabrera,12,2024-09-17 18:49:58.975684,,1
166,166 - Cementerio de Recoleta,-34.588346663239754,-58.39414794286564,Vicente López 2100,12,2024-09-17 18:49:58.975684,,1
167,275 - PLAZA 24 DE SEPTIEMBRE,-34.606984,-58.44854,1355 San Martin Av.,24,2024-09-17 18:49:58.975684,,1
168,168 - Estados Unidos,-34.6186217,-58.3812271,Estados Unidos & Lima,19,2024-09-17 18:49:58.975684,,1
169,169 - FACULTAD DE PSICOLOGIA,-34.613071183327094,-58.41497103862304,Av. Hipólito Yrigoyen 3417,20,2024-09-17 18:49:58.975684,,1
171,171 - Pasteur,-34.6032813,-58.3997553,519 Pasteur,20,2024-09-17 18:49:58.975684,,1
172,172 - BRASIL,-34.625426,-58.371082,BRASIL&DEFENSA,16,2024-09-17 18:49:58.975684,,1
174,174 - MINISTERIO DE EDUCACION,-34.597225,-58.39176799999999,Marcelo T. de Alvear & Rodriguez Peña,20,2024-09-17 18:49:58.975684,,1
175,147 - Constitución,-34.626851,-58.380707,Avenida Juan de Garay 1050,54,2024-09-17 18:49:58.975684,,1
176,067 - PARQUE SARMIENTO I,-34.555254,-58.494845000000005,Av. Dr. Ricardo Balbín 4402,16,2024-09-17 18:49:58.975684,,1
177,177 -PLANETARIO,-34.568165,-58.412121,Av Casares y Av Belisario Roldan,12,2024-09-17 18:49:58.975684,,1
179,179 - CASA SAN,-34.6384786,-58.3642885,Olavarría 811,16,2024-09-17 18:49:58.975684,,1
181,181 - BILLINGHURST Y MANSILLA,-34.5926649,-58.412007200000005,"1520 Billinghurst & Mansilla, Lucio Norberto, General",20,2024-09-17 18:49:58.975684,,1
182,182 - RAVIGNANI Y GUATEMALA,-34.5780479,-58.435246600000006,"2185 Ravignani, Emilio, Dr. & Guatemala",20,2024-09-17 18:49:58.975684,,1
183,183 - VIRREY CEVALLOS,-34.6156994,-58.3899728,Mexico 1652,28,2024-09-17 18:49:58.975684,,1
184,184 - Pedro Echague,-34.6306129,-58.3913419,Pedro Echague 1878 & Combate De Los Pozos,20,2024-09-17 18:49:58.975684,,1
186,186 - MANZANA 66,-34.6136356,-58.4064415,2875 Moreno,20,2024-09-17 18:49:58.975684,,1
187,261 - QUINTEROS LIDORO,-34.552571,-58.45089699999999,"1483 Quinteros, Lidoro J. Av.",16,2024-09-17 18:49:58.975684,,1
188,373 - Jorgelina De Simone,-34.62393,-58.39124999999999,Cochabamba 1799,24,2024-09-17 18:49:58.975684,,1
189,189 - POSADAS,-34.5886889,-58.3852113,1350 Posadas,20,2024-09-17 18:49:58.975684,,1
190,190 - JUNCAL,-34.5850763,-58.4111136,"Juncal & Salguero, Jeronimo",20,2024-09-17 18:49:58.975684,,1
191,191 - Rivadavia y 9 de Julio,-34.6079305,-58.3808358,Pellegrini Y Rivadavia Av.,16,2024-09-17 18:49:58.975684,,1
193,193 - ARENALES Y AGUERO,-34.5908626,-58.4061652,Arenales y Aguero,20,2024-09-17 18:49:58.975684,,1
194,194 - PERÓN Y ACUÑA DE FIGUEROA,-34.6060758,-58.42246349999999,3997 TTE. GENERAL JUAN DOMINGO PERON,16,2024-09-17 18:49:58.975684,,1
196,196 - HOSPITAL ARGERICH,-34.6277671,-58.36602490000001,750 Pi y Margall,20,2024-09-17 18:49:58.975684,,1
197,197 - PLAZA CIUDAD DE UDINE,-34.620998,-58.493044,Mercedes 1480,20,2024-09-17 18:49:58.975684,,1
199,199 - ESTADOS UNIDOS Y BOEDO,-34.6222601,-58.41601370000001,3568 Estados Unidos & Boedo Av.,20,2024-09-17 18:49:58.975684,,1
200,200 - AUSTRIA Y FRENCH,-34.5882997,-58.40426080000001,Austria 2075,16,2024-09-17 18:49:58.975684,,1
202,001 - FACULTAD DE DERECHO,-34.583749,-58.390602,Av. Pres. Figueroa Alcorta 2120,30,2024-09-17 18:49:58.975684,,1
203,108 - Usina del Arte,-34.628757,-58.35625900000001,"Caffarena, Agustin R. & Don Pedro De Mendoza Av.",24,2024-09-17 18:49:58.975684,,1
204,167 - Hipólito Yrigoyen,-34.614948,-58.42781800000001,"4300 Yrigoyen, Hipolito Av.",24,2024-09-17 18:49:58.975684,,1
206,159 - Fitz Roy & Gorriti,-34.58495,-58.437339,Fitz Roy & Gorriti,16,2024-09-17 18:49:58.975684,,1
207,123 - BASUALDO Y RODO,-34.65237685302847,-58.48735935690687,Guardia Nacional 1700,16,2024-09-17 18:49:58.975684,,1
208,145 - RAVIGNANI,-34.5807161,-58.43840400000001,EMILIO RAVIGNANI 1802,20,2024-09-17 18:49:58.975684,,1
210,335 - General Urquiza,-34.572165,-58.411278,Figueroa Alcorta & Sarmiento,20,2024-09-17 18:49:58.975684,,1
212,129 - Velasco,-34.600275,-58.434875,J.Ramirez de Velasco 285,20,2024-09-17 18:49:58.975684,,1
213,136 - Acevedo,-34.599659,-58.442685,Acevedo y Padilla,20,2024-09-17 18:49:58.975684,,1
215,113 - Guatemala,-34.585878,-58.42499599999999,Guatemala 4773,20,2024-09-17 18:49:58.975684,,1
216,059 - Coronel Diaz,-34.589968,-58.411493,Guemes 3330 & Coronel Diaz,20,2024-09-17 18:49:58.975684,,1
219,140 - Las Casas,-34.6360274,-58.4156332,Metan 3661,23,2024-09-17 18:49:58.975684,,1
220,097 - Avelino Diaz,-34.635128,-58.42757300000001,Avelino Diaz&Doblas,15,2024-09-17 18:49:58.975684,,1
222,160 - Godoy Cruz y Libertador,-34.5759189160704,-58.41854288458634,Av. Cerviño 4301,20,2024-09-17 18:49:58.975684,,1
223,178 - José Marmol,-34.6234,-58.424853,803 José Marmol,16,2024-09-17 18:49:58.975684,,1
227,188 - Aranguren,-34.61036075,-58.43276297,Dr. Juan Felipe Aranguren 131,20,2024-09-17 18:49:58.975684,,1
228,010 - Madero UCA,-34.6164879,-58.3656683,"1600 Moreau De Justo, Alicia Av.",15,2024-09-17 18:49:58.975684,,1
229,243 - PLAZOLETA CELEDONIO FLORES,-34.581576,-58.451530000000005,Cordoba 6599,12,2024-09-17 18:49:58.975684,,1
230,259 - PLAZA CASTELLI,-34.5678255,-58.4645037,Echeverria 3249,16,2024-09-17 18:49:58.975684,,1
231,384 - PLAZA BENITO NAZAR,-34.60511787,-58.445999589,VALENTIN VIRASORO 1349,16,2024-09-17 18:49:58.975684,,1
232,252 - Tamborini,-34.5599779,-58.4790578,Tamborini 3821,20,2024-09-17 18:49:58.975684,,1
234,344 - UNIVERSIDAD DI TELLA,-34.5480059,-58.446943900000015,Figueroa Alcorta 7350,20,2024-09-17 18:49:58.975684,,1
235,281 - Villa Urquiza,-34.573734,-58.48692409,Av. Triunvirato 4800,24,2024-09-17 18:49:58.975684,,1
236,254 - Plaza Rafael Hernandez,-34.562161,-58.455166000000006,Vuelta de Obligado 2004,16,2024-09-17 18:49:58.975684,,1
237,302 - ESTACION VILLA LURO,-34.63670935917866,-58.501355258102926,Virgilio 90,16,2024-09-17 18:49:58.975684,,1
239,391 - Plaza República de Ecuador,-34.56533652,-58.42062076,Av. Pres. Figueroa Alcorta 5201,20,2024-09-17 18:49:58.975684,,1
241,348 - Villa del Parque,-34.600874,-58.494123,"Gutierrez, Ricardo 3105",12,2024-09-17 18:49:58.975684,,1
242,103 - MALBA,-34.57694914795284,-58.40398420287857,Av. Pres. Figueroa Alcorta 3451,32,2024-09-17 18:49:58.975684,,1
245,248 - Husares,-34.552594,-58.4429397,Husares 2201,16,2024-09-17 18:49:58.975684,,1
247,282 - Tronador,-34.5838957,-58.466494,Triunvirato Av. & Tronador,18,2024-09-17 18:49:58.975684,,1
248,346 - Plaza Zapiola,-34.573522,-58.474635,2001 Donado,24,2024-09-17 18:49:58.975684,,1
251,388 - Plaza Jose C Paz,-34.641728,-58.402483,Dr. Prof. Pedro Chutro 2881,12,2024-09-17 18:49:58.975684,,1
252,331 - CALIFORNIA,-34.647121,-58.374336,California 1774 y General Hornos,21,2024-09-17 18:49:58.975684,,1
253,383 - BOEDO Y VENEZUELA,-34.6163544,-58.4170737,BOEDO 339,16,2024-09-17 18:49:58.975684,,1
254,276 - PRIMERA JUNTA,-34.62079441851816,-58.4413509067459,Av. Rivadavia 5408 ,16,2024-09-17 18:49:58.975684,,1
255,374 - Puan,-34.622092,-58.448547000000005,Yerbal 1290,20,2024-09-17 18:49:58.975684,,1
257,264 - Plaza Marcos Sastre,-34.570825,-58.48123600000001,Miller & Monroe,24,2024-09-17 18:49:58.975684,,1
258,336 - La Pampa,-34.565521,-58.45533400000001,La Pampa 2512 & Ciudad de la Paz,16,2024-09-17 18:49:58.975684,,1
259,290 - Club Excursionistas,-34.5591522,-58.4441762,Migueletes 1782 (y La Pampa),16,2024-09-17 18:49:58.975684,,1
260,371 - Paseo de las Americas,-34.5530794109,-58.43522348866,Av. Pres Figueroa Alcorta 6400,12,2024-09-17 18:49:58.975684,,1
261,272 - Plaza Bruno Giordano,-34.616151,-58.440584,Bruno Giordano&Neuquen,16,2024-09-17 18:49:58.975684,,1
262,349 - Plaza Saenz Peña,-34.6097088334705,-58.46729693359809,Andrés Lamas 1699,16,2024-09-17 18:49:58.975684,,1
263,270 - PLAZA DEL ANGEL GRIS,-34.622003,-58.457555,Calcena & Avellaneda Av.,20,2024-09-17 18:49:58.975684,,1
264,283 - BALBIN II,-34.5559308,-58.4812325,Av. Dr. Ricardo Balbín y Crisólogo Larralde,16,2024-09-17 18:49:58.975684,,1
265,361 - Plaza Don Segundo Sombra,-34.64196,-58.4505,2347 Santander,28,2024-09-17 18:49:58.975684,,1
267,315 - BEIRO Y SAN MARTÍN,-34.5976121,-58.4985424,3209 Av. Francisco Beiro,16,2024-09-17 18:49:58.975684,,1
268,399 - GARCIA DEL RIO,-34.5503,-58.477,Av. García del Río 3182,36,2024-09-17 18:49:58.975684,,1
269,260 - SAN MIGUEL DE GARICOITS,-34.577329,-58.45779900000001,"Delgado & Loreto, Virrey",18,2024-09-17 18:49:58.975684,,1
270,370 - Beauchef,-34.640114,-58.43026,1995 Beauchef,28,2024-09-17 18:49:58.975684,,1
271,365 - Venancio Flores,-34.629967,-58.473725,Venancio Flores 3170,20,2024-09-17 18:49:58.975684,,1
273,223 - GAINZA,-34.616758,-58.446751,"494 Gainza, Martin De, Gral.",16,2024-09-17 18:49:58.975684,,1
275,256 - PLAZA NORUEGA,-34.562277,-58.459289,Amenabar y Mendoza,20,2024-09-17 18:49:58.975684,,1
277,292 - PLAZA BOLIVIA,-34.563539,-58.436115,Olleros Av. & Del Libertador Av.,17,2024-09-17 18:49:58.975684,,1
278,233 - MONROE,-34.564122,-58.46981300000001,2519 Superi,16,2024-09-17 18:49:58.975684,,1
280,222 - SIMON BOLIVAR,-34.633528,-58.44937899999999,"1701 Fernandez Moreno, Baldomero",28,2024-09-17 18:49:58.975684,,1
281,350 - Plaza Irlanda,-34.613778,-58.458315,Av. Gaona 2200,24,2024-09-17 18:49:58.975684,,1
284,229 - RIGLOS,-34.631018,-58.435056,1019 Riglos,20,2024-09-17 18:49:58.975684,,1
289,255 - BARRANCAS DE BELGRANO,-34.559801,-58.44831400000001,"Sucre, Antonio Jose De, Mcal. Y Vertiz Virrey Av.",24,2024-09-17 18:49:58.975684,,1
291,244 - UADE,-34.617247,-58.381627,Lima 750,16,2024-09-17 18:49:58.975684,,1
299,221 - CULPINA,-34.631705,-58.466143,Culpina 121,19,2024-09-17 18:49:58.975684,,1
301,309 - UTN II,-34.66036165776025,-58.467638689384906,Saraza y Mozart,20,2024-09-17 18:49:58.975684,,1
302,340 - PLAZA NUEVA POMPEYA,-34.6518464,-58.41577099999999,3817 Traful,16,2024-09-17 18:49:58.975684,,1
304,395 - Agronomia II,-34.5893,-58.48480000000001,Av. Francisco Beiró 2120,20,2024-09-17 18:49:58.975684,,1
307,341 - COMUNA 4,-34.6499971,-58.42477299999999,AV PERITO MORENO 2881,12,2024-09-17 18:49:58.975684,,1
308,251 - Solar de la Abadía,-34.567633,-58.436752000000006,Maure 1819,28,2024-09-17 18:49:58.975684,,1
309,298 - PLAZA DR. JUAN B. TERAN,-34.62141207128675,-58.51978098730659,Nogoya 5525,16,2024-09-17 18:49:58.975684,,1
310,356 - ESTACIÓN LUGANO,-34.67948324169569,-58.47424852254684,Martiniano Leguizamón 4401,12,2024-09-17 18:49:58.975684,,1
311,213 - Hospital Alvear,-34.5972098,-58.47421142999999,Av. Warnes 2626,16,2024-09-17 18:49:58.975684,,1
316,205 - SAN MARTIN,-34.605567,-58.453475,1471 Cucha Cucha,28,2024-09-17 18:49:58.975684,,1
318,285 - ESPINOSA,-34.603936,-58.457317,1785 Espinosa,20,2024-09-17 18:49:58.975684,,1
322,289 - MONTAÑESES,-34.551304,-58.454181,2786 Montañeses,20,2024-09-17 18:49:58.975684,,1
323,240 - ECHEVERRIA,-34.565409,-58.459298,1981 Vidal,24,2024-09-17 18:49:58.975684,,1
324,280 - JURAMENTO,-34.578933,-58.4840556,5209 Juramento,16,2024-09-17 18:49:58.975684,,1
327,366 - VILLA OLÍMPICA,-34.677130515662185,-58.454286054001386,Escalada 4347,12,2024-09-17 18:49:58.975684,,1
329,100 - Plaza Gurruchaga,-34.593141,-58.435187,1078 Gurruchaga,20,2024-09-17 18:49:58.975684,,1
330,148 -La Paternal,-34.6008306,-58.47212710000001,PUNTA  ARENAS  1798,20,2024-09-17 18:49:58.975684,,1
333,203 - Beiro,-34.6008,-58.50335,"Beiro 3572, CABA",20,2024-09-17 18:49:58.975684,,1
335,206 - Galicia,-34.615945,-58.47098,2502 Galicia,27,2024-09-17 18:49:58.975684,,1
336,207 - PLAZA ARENALES,-34.5997308,-58.5111458,Nueva York 3949,28,2024-09-17 18:49:58.975684,,1
340,359 - PLAZA BALCARCE,-34.54754,-58.46784399999999,Jaramillo 2312,20,2024-09-17 18:49:58.975684,,1
342,218 - Campana,-34.616813,-58.484297,1523 Campana,20,2024-09-17 18:49:58.975684,,1
348,231 - Margariños Cervantes,-34.610482,-58.474369,2465 Margariños Cervantes,12,2024-09-17 18:49:58.975684,,1
349,232 - Sucre y Martinez,-34.5703869,-58.4663122,Mcal. Antonio José de Sucre 3515,16,2024-09-17 18:49:58.975684,,1
353,237 - Madero Office,-34.599036,-58.36469499999999,"367 Sanchez De Thompson, Mariquita",28,2024-09-17 18:49:58.975684,,1
355,242 - Plazoleta Rafael del Riego,-34.567483,-58.446381,o´higins 1327,16,2024-09-17 18:49:58.975684,,1
358,249 - Vidal,-34.56031055981906,-58.46364346441801,Vidal 2501,20,2024-09-17 18:49:58.975684,,1
359,250 - Fleni,-34.555602,-58.45047900000001,2292 Montañeses,20,2024-09-17 18:49:58.975684,,1
361,258 - Plaza J.J. Paso,-34.569187,-58.453608,1399 Moldes,20,2024-09-17 18:49:58.975684,,1
362,262 - Holmberg,-34.56603251575768,-58.479879186508185,Holmberg 2819 y Nahuel Huapi,12,2024-09-17 18:49:58.975684,,1
363,354 - José Martí,-34.6439,-58.46311399999999,Eva Perón 3321,16,2024-09-17 18:49:58.975684,,1
364,381 - Matienzo Y Arce,-34.570161,-58.43558,Teniente Benjamín Matienzo 1998,28,2024-09-17 18:49:58.975684,,1
366,360 - Plaza Ramon Falcon,-34.6352784,-58.48253270000001,Cnel. Ramón L. Falcón 3992,12,2024-09-17 18:49:58.975684,,1
367,287 - Belaustegui,-34.616659000738366,-58.47770598650817,Belaustegui 2910,16,2024-09-17 18:49:58.975684,,1
368,378 - AGRONOMIA,-34.59807,-58.482079,4351 San Martin,12,2024-09-17 18:49:58.975684,,1
369,304 - Navarro,-34.592244,-58.491797,Navarro 2625,16,2024-09-17 18:49:58.975684,,1
370,305 - Plaza Martin Rodriguez,-34.590964,-58.500336,3016 Pareja,20,2024-09-17 18:49:58.975684,,1
371,269 - Plaza De La Misericordia,-34.6317,-58.45534000000001,LAUTARO 400,12,2024-09-17 18:49:58.975684,,1
372,322 - MARTÍ Y DIRECTORIO,-34.636406,-58.470136,"404 Marti, Jose",20,2024-09-17 18:49:58.975684,,1
373,265 - Plaza Exodo Jujeño,-34.582336918286785,-58.48108314683206,Liverpool 2812,20,2024-09-17 18:49:58.975684,,1
374,367 - Eva Perón,-34.6471,-58.46979999999999,Primera Junta 3898,16,2024-09-17 18:49:58.975684,,1
375,301 - Arregui Y Terrada,-34.604597356692906,-58.484812116143225,2793 Arregui,16,2024-09-17 18:49:58.975684,,1
376,324 - Las Victorias,-34.6274033,-58.48811179999999,Av. Gaona 4660,24,2024-09-17 18:49:58.975684,,1
378,215 - HOSPITAL ALVAREZ,-34.623123,-58.468287,Bolivia 683,20,2024-09-17 18:49:58.975684,,1
379,390 - De Los Ombues,-34.5602,-58.4281,Av. de los Ombúes 300,19,2024-09-17 18:49:58.975684,,1
381,274 - Gavilán,-34.6162466,-58.4658836,Gavilán 1200,16,2024-09-17 18:49:58.975684,,1
382,204 - Biarritz,-34.60543081369964,-58.47725521899702,Biarritz 2403,16,2024-09-17 18:49:58.975684,,1
383,263 - Plaza Echeverria,-34.5717986,-58.48954089999999,Av. Triunvirato 5100 y Nahuel Huapi 5150,20,2024-09-17 18:49:58.975684,,1
384,267 - Plaza 25 De Agosto,-34.57951881156862,-58.46183473148808,14 de julio de 1194,18,2024-09-17 18:49:58.975684,,1
385,268 - Plaza Aristóbulo Del Valle,-34.606159914753725,-58.49314134520765,Campana & Marcos Sastre  ,16,2024-09-17 18:49:58.975684,,1
386,277 - Coghlan,-34.5654,-58.4759,2647 Estomba,8,2024-09-17 18:49:58.975684,,1
387,278 - Donato Alvarez,-34.602028,-58.465568000000005,"1540 Garcia, Juan Agustin",16,2024-09-17 18:49:58.975684,,1
392,297 - TRONADOR Y GARCÍA DEL RÍO,-34.554581,-58.485381,Tronador y Garcia del Rio,16,2024-09-17 18:49:58.975684,,1
393,300 - Jose Artigas,-34.5902732694463,-58.4669322018588,Av. del Campo 1301,28,2024-09-17 18:49:58.975684,,1
395,303 - Huaura,-34.596849288941584,-58.45327985794868,Huaura 1405 y Fitz Roy,16,2024-09-17 18:49:58.975684,,1
400,313 - De Los Incas,-34.57899,-58.46982,Av. de los Incas 4138,20,2024-09-17 18:49:58.975684,,1
403,316 - Buenos Aires,-34.6446835804428,-58.39387590287583,Suarez 3150,30,2024-09-17 18:49:58.975684,,1
407,330 - Parque Avellaneda,-34.6424248,-58.478266,Remedios 3895,16,2024-09-17 18:49:58.975684,,1
408,364 - CERRETTI Y MANUELA PEDRAZA,-34.56912,-58.50025,Ceretti 3407,15,2024-09-17 18:49:58.975684,,1
412,372 - VILLA SOLDATI,-34.6604476,-58.432016800000014,Carlos María Ramírez 2510,12,2024-09-17 18:49:58.975684,,1
413,382 - MERCADO DE HACIENDA MATADEROS,-34.66181712635796,-58.50133009838903,Av. Lisandro de la Torre 2319,8,2024-09-17 18:49:58.975684,,1
414,385 - Franklin,-34.6112804,-58.45004339999999,Franklin 1100,16,2024-09-17 18:49:58.975684,,1
416,257 - Plaza Francisco Ramirez,-34.553262,-58.469133,"2700 Pedraza, Manuela",27,2024-09-17 18:49:58.975684,,1
417,127 - PLAZA LEONARDO N. ALEM,-34.57634,-58.502480000000006,Cochrane 2407,20,2024-09-17 18:49:58.975684,,1
418,345 - Plaza Mafalda,-34.5809383,-58.44458039999999,Conde & Concepción Arenal,16,2024-09-17 18:49:58.975684,,1
420,375 - Ciudad Universitaria I,-34.5446,-58.43959999999999,INTENDENTE GUIRALDES 2160 - PABELLÓN I,16,2024-09-17 18:49:58.975684,,1
422,379 - PARQUE SARMIENTO II,-34.56454,-58.50289,Alfonsina Storni 3771,16,2024-09-17 18:49:58.975684,,1
423,043 - PLAZA ALBERDI,-34.559255,-58.487772,Crisólogo Larralde 4544,12,2024-09-17 18:49:58.975684,,1
424,387 - Luna,-34.639807,-58.39905000000001,Luna 301,12,2024-09-17 18:49:58.975684,,1
425,394 - Av. La Plata,-34.643012510740405,-58.42284285277861,Av. La Plata 2400,20,2024-09-17 18:49:58.975684,,1
426,396 - PLAZA ALBERTI,-34.5557,-58.4579,ARCOS 2665,20,2024-09-17 18:49:58.975684,,1
427,397 - PARQUE SANTOJANNI,-34.648402,-58.51364480000001,ACASSUSO 6373,16,2024-09-17 18:49:58.975684,,1
428,225 - HOSPITAL TORNU,-34.587458,-58.4739506,1052 Avalos,20,2024-09-17 18:49:58.975684,,1
429,201 - PLAZA EJERCITO DE LOS ANDES,-34.63897407331851,-58.51010241799405,Av. Rivadavia y Albariño,16,2024-09-17 18:49:58.975684,,1
431,362 - PARQUE DE LA MEMORIA,-34.542628,-58.43691299999999,Av. Costanera Rafael Obligado 7200,20,2024-09-17 18:49:58.975684,,1
432,187 - Jose Maria Moreno,-34.619879,-58.435801,141 Jose Maria Moreno,28,2024-09-17 18:49:58.975684,,1
433,273 - Plazoleta Colombia,-34.637697,-58.373726000000005,1619 Brandsen,24,2024-09-17 18:49:58.975684,,1
434,247 - PLAZA LUCIO DEMARE,-34.54569,-58.465140000000005,O`Higgins 3750,20,2024-09-17 18:49:58.975684,,1
435,227 -Club Ciudad de Buenos Aires,-34.544503,-58.459499,Miguel Sanchez y Av Libertadores,24,2024-09-17 18:49:58.975684,,1
436,253 - Plaza Colegiales,-34.57653,-58.44348999999999,Tte. Benjamin Matienzo 2886,16,2024-09-17 18:49:58.975684,,1
440,142 - ARMENIA,-34.5906475,-58.42889899999998,ARMENIA 1525 y GORRITI,16,2024-09-17 18:49:58.975684,,1
441,016 - Legislatura,-34.609801,-58.3748,"169 Peru & Roca, Julio A., Presidente Diagonal Sur Av.",20,2024-09-17 18:49:58.975684,,1
444,061 - Ministerio de Economia,-34.608936,-58.37071600000001,"Balcarce e Yrigoyen, Hipolito Av.",23,2024-09-17 18:49:58.975684,,1
448,393 - Barrio 31,-34.58209,-58.3788,Islas Galápagos 2800,32,2024-09-17 18:49:58.975684,,1
449,352 - San Jose de Flores,-34.62883578,-58.463297377,Av. Rivadavia 6955,24,2024-09-17 18:49:58.975684,,1
453,028 - Plaza de la Bandera,-34.6294802,-58.49448539999998,Av. Gaona 5181,20,2024-09-17 18:49:58.975684,,1
454,176 - Plaza Derechos del hombre,-34.63403,-58.50694000000001,CORTINA 551,12,2024-09-17 18:49:58.975684,,1
455,039 - Plaza Don Bosco,-34.62652,-58.50804999999999,Elpidio Gonzalez 5181,16,2024-09-17 18:49:58.975684,,1
457,110 - PLAZA CD DE BANFF,-34.62805,-58.52174,ROMA 786,16,2024-09-17 18:49:58.975684,,1
458,219 - Parque Chacabuco II,-34.63642574842393,-58.44400690036917,AV. ASAMBLEA 1400,28,2024-09-17 18:49:58.975684,,1
460,133 - BEIRO Y SEGUROLA,-34.6075,-58.51193000000001,Segurola 3194,16,2024-09-17 18:49:58.975684,,1
461,106 - MOSCONI Y CONSTITUYENTES,-34.58088,-58.49363000000001,CONSTITUYENTES 4710,20,2024-09-17 18:49:58.975684,,1
464,377 - CIUDAD UNIVERSITARIA III,-34.541,-58.4441,Intendente Guiraldes 2160 - Pabellón III,28,2024-09-17 18:49:58.975684,,1
465,192 - HOSPITAL SIRIO,-34.5904625,-58.5071166,Gabriela Mistral 3325 y Campana,12,2024-09-17 18:49:58.975684,,1
466,333 - PARQUE DE LA ESTACIÓN,-34.608096,-58.41183969999999,Dr. Tomás Manuel de Anchorena 170,20,2024-09-17 18:49:58.975684,,1
467,328 - SARMIENTO II,-34.6055135,-58.3958925,Sarmiento 2037,12,2024-09-17 18:49:58.975684,,1
468,084 - TEATRO PICADERO,-34.6042288,-58.39373749999999,Riobamba 403,8,2024-09-17 18:49:58.975684,,1
469,062 - PARQUE ONEGA,-34.5934185,-58.513837,Av. Gral.Mosconi 3780,16,2024-09-17 18:49:58.975684,,1
471,173 - EL LIBERTADOR,-34.5947293,-58.5033086,Av. San Martín 6220,12,2024-09-17 18:49:58.975684,,1
472,310 - FREIRE II,-34.5751286,-58.45275609999999,Tte. Gral Ramón Freire 1003,16,2024-09-17 18:49:58.975684,,1
473,216 - EMILIO LAMARCA,-34.6134032,-58.4933583,EMILIO LAMARCA 2066,12,2024-09-17 18:49:58.975684,,1
474,224 - BAIGORRIA,-34.6108915,-58.50301999999999,Baigorria 4101,16,2024-09-17 18:49:58.975684,,1
475,238 - PLAZA LAS TOSCANERAS,-34.6165412,-58.52601810000001,Ramón Lista 5500 (y Moliere),12,2024-09-17 18:49:58.975684,,1
476,279 - PLAZA MONTE CASTRO,-34.6182924,-58.4985253,Gualeguaychú 1900,12,2024-09-17 18:49:58.975684,,1
477,311 - SEC. DE INNOVACION Y TRANSFORMACIÓN,-34.6350046,-58.395053900000015,Av. Caseros 2309,12,2024-09-17 18:49:58.975684,,1
478,015 - AMENABAR,-34.572056,-58.44752359999998,Teodoro García 2613,11,2024-09-17 18:49:58.975684,,1
479,347 - CARABOBO,-34.6262877,-58.45530009999998,Pumacahua 9,24,2024-09-17 18:49:58.975684,,1
480,353 - PLAZA VÉLEZ SARSFIELD,-34.6293335,-58.48360279999999,Chivilcoy 400,12,2024-09-17 18:49:58.975684,,1
481,369 - PLAZA LARRAZABAL,-34.6430378,-58.5127001,AV. LARRAZABAL 380,16,2024-09-17 18:49:58.975684,,1
482,376 - PASEO DE LA COSTANERA,-34.550468,-58.430024,Av. Costanera Rafael Obligado 6200,12,2024-09-17 18:49:58.975684,,1
483,175 - PLAZA MACKENNA,-34.5436888,-58.4771259,CRAMER 4500,12,2024-09-17 18:49:58.975684,,1
484,295 - SUPERÍ,-34.5554843,-58.4768041,NUÑEZ 3486,12,2024-09-17 18:49:58.975684,,1
486,220 - PLAZA FELIX LIMA,-34.5420905,-58.47056989999999,RAMALLO 2200,12,2024-09-17 18:49:58.975684,,1
487,239 - AVENIDA CRAMER,-34.55813699999999,-58.46725929999999,Av. Cramer 2900,12,2024-09-17 18:49:58.975684,,1
488,234 - AVENIDA TRIUNVIRATO,-34.5657087,-58.49521839999999,Av. Triunvirato 5752,12,2024-09-17 18:49:58.975684,,1
489,288 - SECRETARÍA DE DEPORTES,-34.5476039,-58.4565662,AV LIBERTADOR 7100,16,2024-09-17 18:49:58.975684,,1
490,245 - COSTANERA NORTE,-34.56477054,-58.402021,AV. Costanera Rafael del Obligado 1700,16,2024-09-17 18:49:58.975684,,1
491,266 - PLAZA SABATTINI,-34.6122963,-58.44329500000001,COLPAYO 699,8,2024-09-17 18:49:58.975684,,1
492,325 - MEDRANO,-34.6097105,-58.4215633,3905 Bartolomé Mitre,20,2024-09-17 18:49:58.975684,,1
493,208 - NICASIO OROÑO,-34.5967435,-58.4594031,Nicasio Oroño 2598,8,2024-09-17 18:49:58.975684,,1
494,314 - ALLENDE,-34.6147875,-58.5116722,Allende 2794,12,2024-09-17 18:49:58.975684,,1
496,052 - CAMPANA II,-34.5831596,-58.51316640000001,Cochrane 3298 (y Campana),12,2024-09-17 18:49:58.975684,,1
497,307 - CERRETTI,-34.5744245,-58.4962318,Ceretti 2892,12,2024-09-17 18:49:58.975684,,1
498,055 - HABANA,-34.5865976,-58.49495850000001,Gral. José Gervasio Artigas 4298 (y Habana),12,2024-09-17 18:49:58.975684,,1
499,286 - FILOSOFIA Y LETRAS,-34.62855635090828,-58.4468139680066,José Bonifacio 1407,16,2024-09-17 18:49:58.975684,,1
500,235 - COMUNA 13,-34.5532117,-58.464224299999984,Ibera 2377,16,2024-09-17 18:49:58.975684,,1
501,020 - GRECIA,-34.5492488,-58.4619408,Grecia 3290,16,2024-09-17 18:49:58.975684,,1
502,296 - SAN ISIDRO LABRADOR,-34.5406752,-58.4752251,Av. San Isidro Labrador 4850,16,2024-09-17 18:49:58.975684,,1
503,212 - TRES ARROYOS,-34.6072013,-58.45640650000001,Paysandú 1491,20,2024-09-17 18:49:58.975684,,1
504,214 - MORÓN,-34.6247196,-58.47518040000001,Morón 3089,12,2024-09-17 18:49:58.975684,,1
505,337 - AV. J. B. JUSTO,-34.6226411,-58.48202029999999,Emilio Lamarca 915 (y Av. Juan B. Justo),16,2024-09-17 18:49:58.975684,,1
506,040 - PARQUE SALGUERO,-34.569435,-58.399369,Av. Costa Salguero 1222,20,2024-09-17 18:49:58.975684,,1
507,271 - VILLA SOLDATI II,-34.673248,-58.45531939999999,23 de junio 4249,24,2024-09-17 18:49:58.975684,,1
508,170 - RAFAELA,-34.6391718,-58.4947858,Rafaela 4811,12,2024-09-17 18:49:58.975684,,1
509,386 - VELEZ SARSFIELD,-34.6336384,-58.48980999999999,Av. Carrasco 214,12,2024-09-17 18:49:58.975684,,1
511,284 - AV. FOREST,-34.575441,-58.46268899999999,Delgado 1569 (y Av. Forest),16,2024-09-17 18:49:58.975684,,1
512,195 - PARQUE CHAS,-34.5816148,-58.47505689999999,Av. De los Incas 4535,19,2024-09-17 18:49:58.975684,,1
513,308 - SAN MARTIN II,-34.5971297,-58.490739000000005,Av. San Martín 5129,12,2024-09-17 18:49:58.975684,,1
515,294 - PLAZOLETA RÍO DE LA PLATA,-34.57424606980564,-58.41465533223048,Av. Sarmiento 500,15,2024-09-17 18:49:58.975684,,1
516,368 - PLAZA DE LA SHOÁ,-34.5709984,-58.423346900000006,Av. Del Libertador 3899,20,2024-09-17 18:49:58.975684,,1
517,332 - PACÍFICO II,-34.5745008,-58.42481399999999,Av. Int. Bullrich 300,16,2024-09-17 18:49:58.975684,,1
518,329 - LAS CAÑITAS,-34.5738986,-58.431782000000005,Clay 2818,12,2024-09-17 18:49:58.975684,,1
519,053 - AV. DEL LIBERTADOR ,-34.59291496187579,-58.375442711639394,Av. Del Libertador 100,20,2024-09-17 18:49:58.975684,,1
520,180 - PARQUE OLIMPICO,-34.67263155698435,-58.445517873322615,Av. Coronel Roca 5252 (dentro del Parque Olímpico). ,20,2024-09-17 18:49:58.975684,,1
521,226 - AV. WARNES,-34.59646530000001,-58.46638409999999,Av. Warnes 2150,16,2024-09-17 18:49:58.975684,,1
522,119 - PLAZOLETA BENEDIT,-34.6022435,-58.44254819999999,Av. Warnes y Av. R. Scalabrini Ortiz,16,2024-09-17 18:49:58.975684,,1
524,338 - AV. CABILDO,-34.557933,-58.4607027,Av. Cabildo 2586,12,2024-09-17 18:49:58.975684,,1
525,317 - ESCUELA RAGGIO,-34.536691,-58.4668133,Av. Libertador 8620 (y Pico),16,2024-09-17 18:49:58.975684,,1
526,088 - NUÑEZ ,-34.54162804074317,-58.46340407324711,Comodoro Martín Rivadavia 1630,12,2024-09-17 18:49:58.975684,,1
527,068 - AV. CORDOBA,-34.588727,-58.43838599999999,Av. Cordoba 5403,12,2024-09-17 18:49:58.975684,,1
528,042 - Skate Park Villa Luro,-34.6367055,-58.49528569999998, Av. Rivadavia 9301,16,2024-09-17 18:49:58.975684,,1
529,011 - RIO DE JANEIRO,-34.61325931284073,-58.43011879451216,Río de Janeiro 205,18,2024-09-17 18:49:58.975684,,1
530,031 - PARQUE RIVADAVIA,-34.61651103390999,-58.43235024128227,Av Rivadavia 4950,20,2024-09-17 18:49:58.975684,,1
531,048 - JOSE AMALFITANI,-34.63362230949344,-58.52125773107453,Av. Juan Bautista Justo 6383,20,2024-09-17 18:49:58.975684,,1
532,072 - INSTITUTO POLITÉCNICO MODELO,-34.573033051099245,-58.5039082871025,Av Constituyentes 5880,20,2024-09-17 18:49:58.975684,,1
533,077 - CRISOLOGO LARRALDE,-34.56119069896605,-58.4920304128975,Galván 3601,20,2024-09-17 18:49:58.975684,,1
534,081 - PARQUE DE LAS CIENCIAS,-34.5829625,-58.42997930000001,Soler 5300 ,24,2024-09-17 18:49:58.975684,,1
535,090 - HONORIO PUEYRREDON,-34.60251720000001,-58.449658973016376,Honorio Pueyrredón 1653,20,2024-09-17 18:49:58.975684,,1
536,019 - PLAZA  SAN MARTIN,-34.5954737,-58.37748229999999,Av. Santa Fe 716,20,2024-09-17 18:49:58.975684,,1
537,389 - Av. ELCANO,-34.57080828710083,-58.45806148960133,Av. ELCANO 3000,12,2024-09-17 18:49:58.975684,,1
538,047 - PARQUE DE LA INNOVACIÓN,-34.545091,-58.451432,Av. G. Udaondo 1146,15,2024-09-17 18:49:58.975684,,1
539,115 - JUAN DE GARAY,-34.626972970573625,-58.38060147088622,Av. Juan de Garay 1135,20,2024-09-17 18:49:58.975684,,1
540,185 - JORGE NEWBERY,-34.55771,-58.41033000000001,Av. Costanera Rafael Obligado,18,2024-09-17 18:49:58.975684,,1
541,198 - AEROPARQUE,-34.55572,-58.41320999999999,Av. Costanera Rafael Obligado,12,2024-09-17 18:49:58.975684,,1
542,202 - VICTOR MANUEL ACUÑA,-34.55386,-58.41949999999999,Av. Costanera Rafael Obligado,16,2024-09-17 18:49:58.975684,,1
543,139 - CASA ROSADA,-34.60748033900249,-58.366741024467466,Av. Alicia Moreau de Justo 861,16,2024-09-17 18:49:58.975684,,1
544,078 - TEATRO COLÓN,-34.600598,-58.382361,Cerrito 698,23,2024-09-17 18:49:58.975684,,1
545,141 - DEL BARCO CENTENERA,-34.62780084937208,-58.440321152114855,Del Barco Centenera 741,20,2024-09-17 18:49:58.975684,,1
546,143 - COMUNA 7,-34.6313039,-58.44176059999998,Emilio Mitre 860,16,2024-09-17 18:49:58.975684,,1
547,023 - ALMAGRO,-34.620169,-58.422097,México 4000,20,2024-09-17 18:49:58.975684,,1
548,051 - PLAZA SUDAMERICA,-34.687767,-58.475178,Av. Piedrabuena 4901,20,2024-09-17 18:49:58.975684,,1
549,095 - EMILIO CASTRO,-34.649701,-58.51078,Av. Emilio Castro 6301,16,2024-09-17 18:49:58.975684,,1
550,154 - LINIERS,-34.634808,-58.527098,Av. Juan Bautista Justo 9710,20,2024-09-17 18:49:58.975684,,1
551,157 - LEGUIZAMON,-34.644804,-58.518867,Martiniano Leguizamón 599,20,2024-09-17 18:49:58.975684,,1
552,209 - DEVOTO,-34.6028514,-58.5126086,Ricardo Gutierrez 4224,24,2024-09-17 18:49:58.975684,,1
553,210 - JOSE LEON CABEZON,-34.5801918,-58.50094170000001,José León Cabezón 2516,16,2024-09-17 18:49:58.975684,,1
554,211 - BLANCO ENCALADA,-34.5698528,-58.4767434,Blanco Encalada 4118,16,2024-09-17 18:49:58.975684,,1
556,230 - AREVALO,-34.583613,-58.443602000000006,Arévalo 1408,32,2024-09-17 18:49:58.975684,,1
