station_id,name,physical_configuration,lat,lon,altitude,address,post_code,capacity,is_charging_station,rental_methods,groups,obcn,short_name,nearby_distance,_ride_code_support,cross_street
2,002 - Retiro I,SMARTLITMAPFRAME,-34.5924,-58.3747,0.0,AV. Dr. José María Ramos Mejía 1300,11111,40,False,"['KEY', 'TRANSITCARD', 'PHONE']",['RETIRO'],,,1000.0,True,
3,003 - ADUANA,SMARTLITMAPFRAME,-34.6122,-58.3691,,Av. Paseo Colón 380,C1063,28,False,"['KEY', 'TRANSITCARD', 'PHONE']",['MONSERRAT'],,,1000.0,True,.
4,004 - Plaza Roma,SMARTLITMAPFRAME,-34.603,-58.3689,0.0,Av. Corrientes 100,11111,20,False,"['KEY', 'TRANSITCARD', 'PHONE']",['SAN NICOLAS'],,,1000.0,True,
5,005 - Plaza Italia,SMARTLITMAPFRAME,-34.5805,-58.421,0.0,Av. Sarmiento 2601,1111,42,False,"['KEY', 'TRANSITCARD', 'PHONE']",['PALERMO'],,,1000.0,True,
6,006 - Parque Lezama,SMARTLITMAPFRAME,-34.6285,-58.3698,0.0,"Avenida Martin Garcia, 295",1111,20,False,"['KEY', 'TRANSITCARD', 'PHONE']",['SAN TELMO'],,,1000.0,True,
7,007 - OBELISCO,SMARTLITMAPFRAME,-34.6065,-58.3811,,CARLOS PELEGRINI 215,11111,24,False,"['KEY', 'TRANSITCARD', 'PHONE']",['SAN NICOLAS'],,,1000.0,True,CARLOS PELEGRINI 215
8,008 - Congreso,SMARTLITMAPFRAME,-34.6094,-58.3893,0.0,"Cevallos, Virrey& Yrigoyen, Hipolito Av.",11111,24,False,"['KEY', 'TRANSITCARD', 'PHONE']",['SAN NICOLAS'],,,1000.0,True,
9,009 - Parque Las Heras,SMARTLITMAPFRAME,-34.5854,-58.4077,0.0,"2300 Diaz, Cnel. Av. & French",11111,24,False,"['KEY', 'TRANSITCARD', 'PHONE']",['PALERMO'],,,1000.0,True,
12,012 - Plaza Vicente Lopez,SMARTLITMAPFRAME,-34.5927,-58.3888,0.0,Parana & Juncal,11111,16,False,"['KEY', 'TRANSITCARD', 'PHONE']",['RECOLETA'],,,1000.0,True,
13,013 - ONCE,SMARTLITMAPFRAME,-34.6101,-58.406,,Av. Pueyrredon & Av. Rivadavia,1111,30,False,"['KEY', 'TRANSITCARD', 'PHONE']",['BALVANERA'],,,1000.0,True,Av. Pueyrredon & Av. Rivadavia
14,014 - Pacifico,SMARTLITMAPFRAME,-34.5774,-58.4264,0.0,"Santa Fe Av. & Bullrich, Int. Av.",11111,30,False,"['KEY', 'TRANSITCARD', 'PHONE']",['PALERMO'],,,1000.0,True,
17,017 - Plaza Almagro,SMARTLITMAPFRAME,-34.6064,-58.4187,0.0,"441 Bulnes & Peron, Juan Domingo, Tte. General",11111,20,False,"['KEY', 'TRANSITCARD', 'PHONE']",['ALMAGRO'],,,1000.0,True,
21,021 - Parque Patricios,SMARTLITMAPFRAME,-34.6401,-58.4064,0.0,Iguazu & Uspallata,1111,24,False,"['KEY', 'TRANSITCARD', 'PHONE']",['PARQUE PATRICIOS'],,,1000.0,True,
22,022 - Arenales,SMARTLITMAPFRAME,-34.5939,-58.3825,,Cerrito & Arenales,11111,20,False,"['KEY', 'TRANSITCARD', 'PHONE']",['RETIRO'],,,1000.0,True,Cerrito & Arenales
24,024 - ALSINA,SMARTLITMAPFRAME,-34.6106,-58.3809,,Adolfo Alsina& Bernardo De Irigoyen,11111,18,False,"['KEY', 'TRANSITCARD', 'PHONE']",['MONSERRAT'],,,1609.34,True,Adolfo Alsina& Bernardo De Irigoyen
25,025 - Plaza Guemes,SMARTLITMAPFRAME,-34.5894,-58.4161,0.0,"Salguero, Jeronimo & Mansilla, Lucio Norberto, General",11111,30,False,"['KEY', 'TRANSITCARD', 'PHONE']",['PALERMO'],,,1000.0,True,
26,026 - JUANA MANSO I,SMARTLITMAPFRAME,-34.6008,-58.3639,0.0,"Manso Juana & De La Barra, Emma",11111,30,False,"['KEY', 'TRANSITCARD', 'PHONE']",['PUERTO MADERO'],,,1609.34,True,
27,027 - Montevideo,SMARTLITMAPFRAME,-34.5991,-58.3901,0.0,Cordoba Av. & Montevideo,1111,20,False,"['KEY', 'TRANSITCARD', 'PHONE']",['SAN NICOLAS'],,,1000.0,True,
29,029 - Parque Centenario,SMARTLITMAPFRAME,-34.6079,-58.4336,0.0,Av. Patricias Argentinas & Estivao,11111,29,False,"['KEY', 'TRANSITCARD', 'PHONE']",['CABALLITO'],,,1000.0,True,
32,032 - Catedral,SMARTLITMAPFRAME,-34.6067,-58.3737,0.0,Bartolomé Mitre & San Martín,11111,18,False,"['KEY', 'TRANSITCARD', 'PHONE']",['SAN NICOLAS'],,,1000.0,True,
33,033 - Facultad de Medicina,SMARTLITMAPFRAME,-34.5971,-58.399,0.0,Pres. José Evaristo Uriburu 987,11111,20,False,"['KEY', 'TRANSITCARD', 'PHONE']",['RECOLETA'],,,1000.0,True,"Uriburu Jose E., Pres. & Alvear, Marcelo T. De"
35,035 - INGENIERO BUTTY,SMARTLITMAPFRAME,-34.5964,-58.3718,,Ing. E. Butty 291,11111,32,False,"['KEY', 'TRANSITCARD', 'PHONE']",['RETIRO'],,,1000.0,True,Ing. E. Butty 291 &  Av Leandro N.  Alem
36,036 - MAIPÚ,SMARTLITMAPFRAME,-34.6011,-58.3745,,Tucumán 536,C1049,12,False,"['KEY', 'TRANSITCARD', 'PHONE']",['SAN NICOLAS'],,,1000.0,True,Tucumán 536
38,038 - Plaza Libertad,SMARTLITMAPFRAME,-34.597,-58.3828,0.0,Cerrito 990 y Av. Marcelo T. De Alvear,11111,20,False,"['KEY', 'TRANSITCARD', 'PHONE']",['RETIRO'],,,1609.34,True,
41,041 - PARQUE PATRICIOS II,SMARTLITMAPFRAME,-34.6371,-58.4059,,Av Caseros 3015,1111,20,False,"['KEY', 'TRANSITCARD', 'PHONE']",['PARQUE PATRICIOS'],,,1000.0,True,"Urquiza, Gral. & Rondeau"
43,334 - CENTRO DE EXPOSICIONES,SMARTLITMAPFRAME,-34.584,-58.3899,,2133 Figueroa Alcorta,1111,27,False,"['KEY', 'TRANSITCARD', 'PHONE']",['RECOLETA'],,,1000.0,True,
44,044 - Ecoparque,SMARTLITMAPFRAME,-34.5755,-58.4139,0.0,"Av. Del Libertador, 3260",111,20,False,"['KEY', 'TRANSITCARD', 'PHONE']",['PALERMO'],,,1000.0,True,
45,045 - Uruguay,SMARTLITMAPFRAME,-34.6019,-58.3867,0.0,561 Uruguay & Av. Tucuman,111,20,False,"['KEY', 'TRANSITCARD', 'PHONE']",['SAN NICOLAS'],,,1000.0,True,
46,046 - Chile,SMARTLITMAPFRAME,-34.6164,-58.3744,0.0,Perú 718,C1068,18,False,"['KEY', 'TRANSITCARD', 'PHONE']",['SAN TELMO'],,,1000.0,True,
48,034 - Colonia Express,SMARTLITMAPFRAME,-34.6236,-58.3632,,Elvira Rawson de Dellepiane 150,C1107,16,False,"['KEY', 'TRANSITCARD', 'PHONE']",['PUERTO MADERO'],,,1000.0,True,paseo del bajo
49,049 - 33 Orientales,SMARTLITMAPFRAME,-34.6292,-58.4248,0.0,Constitución 4288,C1254,16,False,"['KEY', 'TRANSITCARD', 'PHONE']",['BOEDO'],,,1000.0,True,
50,050 - Hospital Rivadavia,SMARTLITMAPFRAME,-34.5837,-58.4011,,2516 Pereyra Lucena,11111,20,False,"['KEY', 'TRANSITCARD', 'PHONE']",['PALERMO'],,,1000.0,True,Pereyra Lucena & Av. General Las Heras
54,054 - Acuña de Figueroa,SMARTLITMAPFRAME,-34.5982,-58.4221,0.0,Lavalle 4015,C1190,20,False,"['KEY', 'TRANSITCARD', 'PHONE']",['ALMAGRO'],,,1000.0,True,Acuña de Figueroa y Lavalle
56,056 - Plaza Palermo Viejo,SMARTLITMAPFRAME,-34.5886,-58.426,0.0,Costa Rica & Armenia,11111,20,False,"['KEY', 'TRANSITCARD', 'PHONE']",['PALERMO'],,,1000.0,True,
57,057 - BELGRANO,SMARTLITMAPFRAME,-34.6132,-58.3706,,Balcarce 482,C1064,12,False,"['KEY', 'TRANSITCARD', 'PHONE']",['MONSERRAT'],,,1000.0,True,.
58,058 - Ministro Carranza,SMARTLITMAPFRAME,-34.5753,-58.4347,0.0,Santa Fe Av. & Dorrego,11111,20,False,"['KEY', 'TRANSITCARD', 'PHONE']",['PALERMO'],,,1000.0,True,
59,018 - Independencia,SMARTLITMAPFRAME,-34.6177,-58.3806,,Idependencia y Bernardo de Irigoyen,11111,20,False,"['KEY', 'TRANSITCARD', 'PHONE']",['MONSERRAT'],,,1609.34,True,
60,060 - 25 De Mayo,SMARTLITMAPFRAME,-34.6017,-58.3711,,527 25 De Mayo,11111,20,False,"['KEY', 'TRANSITCARD', 'PHONE']",['SAN NICOLAS'],,,1000.0,True,25 De Mayo & Lavalle
61,098 - BENITO JUAREZ,SMARTLITMAPFRAME,-34.6189,-58.5052,0.0, Benito Juarez 2231,C1417,12,False,"['KEY', 'TRANSITCARD', 'PHONE']",['MONTE CASTRO'],,,1000.0,True,
63,063 - Reconquista,SMARTLITMAPFRAME,-34.5998,-58.3747,0.0,Viamonte 555,C1053,28,False,"['KEY', 'TRANSITCARD', 'PHONE']",['SAN NICOLAS'],,,1000.0,True,
64,064 - RIOBAMBA,SMARTLITMAPFRAME,-34.5937,-58.3941,,Riobamba 1264 & Juncal,11111,20,False,"['KEY', 'TRANSITCARD', 'PHONE']",['RECOLETA'],,,1000.0,True,Riobamba 1264 & Juncal
65,065 - Julián Álvarez,SMARTLITMAPFRAME,-34.5873,-58.4158,,3822 Guemes,11111,20,False,"['KEY', 'TRANSITCARD', 'PHONE']",['PALERMO'],,,1000.0,True,Guemes & Julian Alvarez
66,066 - Billinghurst,SMARTLITMAPFRAME,-34.5945,-58.4139,,3508 Carcova,11111,20,False,"['KEY', 'TRANSITCARD', 'PHONE']",['RECOLETA'],,,1000.0,True,De La Carcova & Soler
68,105 - PARQUE SAAVEDRA,SMARTLITMAPFRAME,-34.5521,-58.4805,,García del Río 3590,11111,16,False,"['KEY', 'TRANSITCARD', 'PHONE']",['SAAVEDRA'],-,-,1000.0,True,García del Río 3590
69,069 - Ecuador,SMARTLITMAPFRAME,-34.5961,-58.4046,0.0,"1226 Ecuador & Mansilla, Lucio Norberto, General",111,16,False,"['KEY', 'TRANSITCARD', 'PHONE']",['RECOLETA'],,,1000.0,True,
70,070 - ARAOZ,SMARTLITMAPFRAME,-34.5927,-58.4261,,1413 Araoz & Gorriti CABA,1111,24,False,"['KEY', 'TRANSITCARD', 'PHONE']",['PALERMO'],,,1000.0,True,
71,071 - CERRITO,SMARTLITMAPFRAME,-34.6027,-58.3834,,Libertad & lavalle,11111,30,False,"['KEY', 'TRANSITCARD', 'PHONE']",['SAN NICOLAS'],,,1000.0,True,Av Pres. Roque Saenz Peña 1194
73,073 - Ruy Díaz de Guzmán,SMARTLITMAPFRAME,-34.6307,-58.3718,0.0,Avenida Martin Garcia y Ruy Díaz de Guzmán,1111111,20,False,"['KEY', 'TRANSITCARD', 'PHONE']",['BOCA'],,,1000.0,True,
74,074 - INSTITUTO LELOIR,SMARTLITMAPFRAME,-34.6044,-58.4345,,Juana De Ibarbourou & Av Patricias Argentinas,1111,30,False,"['KEY', 'TRANSITCARD', 'PHONE']",['CABALLITO'],,,1000.0,True,
75,075 - Plaza Primero de Mayo,SMARTLITMAPFRAME,-34.6123,-58.399,0.0,238 Pichincha,11111,20,False,"['KEY', 'TRANSITCARD', 'PHONE']",['BALVANERA'],,,1000.0,True,
76,076 - Ayacucho,SMARTLITMAPFRAME,-34.6074,-58.3951,0.0,"Ayacucho &Peron, Juan Domingo, Tte. General",11111,20,False,"['KEY', 'TRANSITCARD', 'PHONE']",['BALVANERA'],,,1000.0,True,
77,109 - ESTACION PUEYRREDON,SMARTLITMAPFRAME,-34.5811,-58.5015,,Bolivia 5071,1111,16,False,"['KEY', 'TRANSITCARD', 'PHONE']",['VILLA PUYRREDON'],,,1000.0,True,Bolivia 5071
79,079 - AZUCENA VILLAFLOR,SMARTLITMAPFRAME,-34.6119,-58.3639,,"Villaflor, Azucena & Dealessi, Pierina",C1107CID,30,False,"['KEY', 'TRANSITCARD', 'PHONE']",['PUERTO MADERO'],,,1609.34,True,"Villaflor, Azucena & Dealessi, Pierina"
80,080 - VALLE,SMARTLITMAPFRAME,-34.6246,-58.4341,,Valle 486,C1424,12,False,"['KEY', 'TRANSITCARD', 'PHONE']",['CABALLITO'],,,1000.0,True,
82,082 - HOSPITAL ITALIANO,SMARTLITMAPFRAME,-34.6079,-58.4264,,394 Rawson & Potosi,11111,20,False,"['KEY', 'TRANSITCARD', 'PHONE']",['ALMAGRO'],,,1000.0,True,
83,083 - Paraná,SMARTLITMAPFRAME,-34.6033,-58.3894,,1590 Lavalle,11111,28,False,"['KEY', 'TRANSITCARD', 'PHONE']",['SAN NICOLAS'],,,1000.0,True,Lavalle & Montevideo
85,085 - AGUERO,SMARTLITMAPFRAME,-34.5948,-58.4092,,"Aguero & Mansilla, Lucio Norberto, General",11111,20,False,"['KEY', 'TRANSITCARD', 'PHONE']",['RECOLETA'],,,1000.0,True,"Aguero & Mansilla, Lucio Norberto, General"
86,086 - SAAVEDRA,SMARTLITMAPFRAME,-34.6213,-58.4017,,1019 Saavedra,11111,20,False,"['KEY', 'TRANSITCARD', 'PHONE']",['SAN CRISTOBAL'],,,1000.0,True,"1019 Saavedra & Calvo, Carlos"
87,087 - Guayaquil,SMARTLITMAPFRAME,-34.6198,-58.4315,0.0,Guayaquil & Doblas,1111,16,False,"['KEY', 'TRANSITCARD', 'PHONE']",['CABALLITO'],,,1000.0,True,
89,089 - Cabello,SMARTLITMAPFRAME,-34.5825,-58.4057,,3082 Cabello,1111,20,False,"['KEY', 'TRANSITCARD', 'PHONE']",['PALERMO'],,,1000.0,True,
91,091 - Pasco,SMARTLITMAPFRAME,-34.6174,-58.3976,0.0,708 Pasco & Chile,1111,24,False,"['KEY', 'TRANSITCARD', 'PHONE']",['BALVANERA'],,,1000.0,True,
92,092 - Salcedo,SMARTLITMAPFRAME,-34.6316,-58.4053,0.0,2908 Salcedo & Dean Funes,111,20,False,"['KEY', 'TRANSITCARD', 'PHONE']",['PARQUE PATRICIOS'],,,1000.0,True,
93,093 - CARLOS CALVO,SMARTLITMAPFRAME,-34.6208,-58.3945,,Sarandi 1010,1111,20,False,"['KEY', 'TRANSITCARD', 'PHONE']",['SAN CRISTOBAL'],,,1000.0,True,"1010 Sarandi & Calvo, Carlos"
94,094 - GÚZMAN,SMARTLITMAPFRAME,-34.5915,-58.4497,,Av Guzman 129 & Leiva,1111,29,False,"['KEY', 'TRANSITCARD', 'PHONE']",['ZONA 1'],,,1000.0,True,
96,096 - Carlos Gardel,SMARTLITMAPFRAME,-34.6028,-58.4117,0.0,3302 Guardia Vieja & Aguero,11111,16,False,"['KEY', 'TRANSITCARD', 'PHONE']",['BALVANERA'],,,1000.0,True,
98,037- Claudia Pía Baudracco,SMARTLITMAPFRAME,-34.6082,-58.3779,0.0,Esmeralda y Rivadavia,11111,16,False,"['KEY', 'TRANSITCARD', 'PHONE']",['MONSERRAT'],,,1609.34,True,
99,099 - Malabia,SMARTLITMAPFRAME,-34.5961,-58.4354,0.0,780 Malabia & Loyola,11111,20,False,"['KEY', 'TRANSITCARD', 'PHONE']",['VILLA CRESPO'],,,1000.0,True,
101,101 - Fitz Roy,SMARTLITMAPFRAME,-34.5892,-58.4424,0.0,Fitz Roy  1092 & Loyola,11111,20,False,"['KEY', 'TRANSITCARD', 'PHONE']",['ZONA 1'],,,1000.0,True,
102,102 - ROSETI,SMARTLITMAPFRAME,-34.5851,-58.4493,,ROSETI 390,C1427,20,False,"['KEY', 'TRANSITCARD', 'PHONE']",['ZONA 1'],,,1000.0,True,
104,104 - Federico Lacroze,SMARTLITMAPFRAME,-34.5876,-58.4552,0.0,Av. Guzman 1100 & Av. Corrientes,111111,30,False,"['KEY', 'TRANSITCARD', 'PHONE']",['ZONA 1'],,,1000.0,True,
107,107 - HOSPITAL GARRAHAN,SMARTLITMAPFRAME,-34.6304,-58.3958,,Brasil 2290,1260,16,False,"['KEY', 'TRANSITCARD', 'PHONE']",['PARQUE PATRICIOS'],,,1000.0,True,Brasil & Pichincha
111,111 - MACACHA GUEMES,SMARTLITMAPFRAME,-34.6055,-58.3647,,Macacha Guemes 350,1111,30,False,"['KEY', 'TRANSITCARD', 'PHONE']",['PUERTO MADERO'],,,1609.34,True,Macacha Guemes 350 &Pierina Dealessi
112,112 - 9 de Julio,SMARTLITMAPFRAME,-34.6121,-58.3804,,Bernardo Irigoyen 320,11111,20,False,"['KEY', 'TRANSITCARD', 'PHONE']",['MONSERRAT'],,,1609.34,True,Bernardo Irigoyen 320 & Moreno
114,114 - TORRE MACRO,SMARTLITMAPFRAME,-34.594,-58.3714,, Av. Eduardo Madero 1180,11111,12,False,"['KEY', 'TRANSITCARD', 'PHONE']",['RETIRO'],,,1609.34,True, Av. Eduardo Madero 1180
116,116 - HOSPITAL ALEMÁN,SMARTLITMAPFRAME,-34.5922,-58.4026,,Beruti & Ecuador,1111,12,False,"['KEY', 'TRANSITCARD', 'PHONE']",['RECOLETA'],,,1000.0,True,Beruti & Ecuador
117,117 - HUMBERTO 1°,SMARTLITMAPFRAME,-34.6196,-58.3732,,Av. Carlos Calvo 513,11111,20,False,"['KEY', 'TRANSITCARD', 'PHONE']",['SAN TELMO'],,,1000.0,True,Peru  1016& Carlos Calvo
118,118 - MEXICO,SMARTLITMAPFRAME,-34.617,-58.4027,,Saavedra & Mexico,11111,20,False,"['KEY', 'TRANSITCARD', 'PHONE']",['BALVANERA'],,,1000.0,True,Saavedra & Mexico
120,120 - HOSPITAL RAMOS MEJIA,SMARTLITMAPFRAME,-34.6175,-58.4093,,3084 Agrelo,1111,19,False,"['KEY', 'TRANSITCARD', 'PHONE']",['BALVANERA'],,,1000.0,True,3084 Agrelo & Urquiza
121,121 - YATAY,SMARTLITMAPFRAME,-34.6012,-58.4285,,925 Yatay& Humahuaca,1111,20,False,"['KEY', 'TRANSITCARD', 'PHONE']",['ALMAGRO'],,,1000.0,True,925 Yatay& Humahuaca
122,122 - COSTA RICA,SMARTLITMAPFRAME,-34.5916,-58.4198,,COSTA RICA 4060,C1176,24,False,"['KEY', 'TRANSITCARD', 'PHONE']",['PALERMO'],,,1000.0,True,COSTA RICA 4060
124,124 - UGARTECHE,SMARTLITMAPFRAME,-34.5805,-58.412,,3050 Ugarteche,C3123,20,False,"['KEY', 'TRANSITCARD', 'PHONE']",['PALERMO'],,,1000.0,True,3050 Ugarteche & Cabello
126,126 - Ministerio de Justicia y Seguridad,SMARTLITMAPFRAME,-34.6392,-58.3696,,Olavarría 1201,C1267,16,False,"['KEY', 'TRANSITCARD', 'PHONE']",['BOCA'],,,1000.0,True,
128,128 - PARQUE DEL BAJO,SMARTLITMAPFRAME,-34.6052,-58.3688,,Tte. Gral. Juan Domingo Perón 133,1111,28,False,"['KEY', 'TRANSITCARD', 'PHONE']",['SAN NICOLAS'],,,1000.0,True,"Madero, Eduardo Av. & Peron, Juan Domingo, Tte. General"
130,130 - RETIRO II,SMARTLITMAPFRAME,-34.5917,-58.3744,,Av. Dr. José María Ramos Mejía 1350,1111,40,False,"['KEY', 'TRANSITCARD', 'PHONE']",['RETIRO'],130,130,1609.34,True,"Ramos Mejia, Av Dr Jose Maria Vargas& Av. Del Libertador"
131,131- HOSPITAL DE CLÍNICAS,SMARTLITMAPFRAME,-34.5984,-58.399,,"Uriburu Jose E., Pres. & Paraguay",1111,16,False,"['KEY', 'TRANSITCARD', 'PHONE']",['RECOLETA'],,,1000.0,True,"Uriburu Jose E., Pres. & Paraguay"
132,132 - CORRIENTES,SMARTLITMAPFRAME,-34.6034,-58.3728,,Reconquista & Corrientes Av.,1111,12,False,"['KEY', 'TRANSITCARD', 'PHONE']",['SAN NICOLAS'],,,1000.0,True,Reconquista & Corrientes Av.
134,134 - SOLDADO DE LA FRONTERA,SMARTLITMAPFRAME,-34.6832,-58.469,,Ana Díaz 5899,C1439,12,False,"['KEY', 'TRANSITCARD', 'PHONE']",['VILLA LUGANO'],,,1000.0,True,.
135,135 - MARCELO T. DE ALVEAR,SMARTLITMAPFRAME,-34.5976,-58.3784,,Esmeralda & Paraguay,C1057,20,False,"['KEY', 'TRANSITCARD', 'PHONE']",['SAN NICOLAS'],,,1000.0,True,Esmeralda & Paraguay 
137,137 - AZOPARDO Y CHILE,SMARTLITMAPFRAME,-34.6156,-58.3675,,AZOPARDO 700,1111,24,False,"['KEY', 'TRANSITCARD', 'PHONE']",['MONSERRAT'],,,1609.34,True,AZOPARDO 700 & AV CHILE
138,138 - Hospital Britanico,SMARTLITMAPFRAME,-34.6354,-58.3877,,153 Perdriel,1111,12,False,"['KEY', 'TRANSITCARD', 'PHONE']",['BARRACAS'],,,1000.0,True,
144,144 - PUEYRREDÓN,SMARTLITMAPFRAME,-34.6019,-58.4061,,684 Boulogne Sur Mer & Tucuman,1111,20,False,"['KEY', 'TRANSITCARD', 'PHONE']",['BALVANERA'],,,1000.0,True,684 Boulogne Sur Mer & Tucuman
146,146 - Hospital Francés,SMARTLITMAPFRAME,-34.6221,-58.4078,,"3024 Calvo, Carlos",1111,20,False,"['KEY', 'TRANSITCARD', 'PHONE']",['SAN CRISTOBAL'],,,1000.0,True,"3024 Calvo, Carlos & La Rioja"
148,323 - Parque Avellaneda II,SMARTLITMAPFRAME,-34.6452,-58.4846,,Av. Directorio 4295 ,1111,16,False,"['KEY', 'TRANSITCARD', 'PHONE']",['PARQUE AVELLANEDA'],,,1000.0,True,
149,149 - LIMA,SMARTLITMAPFRAME,-34.6153,-58.3814,,México & Lima,11111,16,False,"['KEY', 'TRANSITCARD', 'PHONE']",['MONSERRAT'],,,1609.34,True,México & Lima
150,150 - RODRIGO BUENO,SMARTLITMAPFRAME,-34.6188,-58.3555,,Av. España 2200,1111,36,False,"['KEY', 'TRANSITCARD', 'PHONE']",['PUERTO MADERO'],,,1609.34,True,Av. España y Rodrigo Bueno
152,152 - JULIETA LANTERI,SMARTLITMAPFRAME,-34.6182,-58.3596,,"Vera Peñaloza, Rosario 599 & Lanteri Julieta",11111,28,False,"['KEY', 'TRANSITCARD', 'PHONE']",['PUERTO MADERO'],,,1609.34,True,"Vera Peñaloza, Rosario & Lanteri Julieta"
153,153 - JUAN MANUEL DE BLANES,SMARTLITMAPFRAME,-34.631,-58.3629,,Av. Almirante Brown 653,C1155,20,False,"['KEY', 'TRANSITCARD', 'PHONE']",['BOCA'],,,1000.0,True,
155,155 - Parque José Evaristo Uriburu,SMARTLITMAPFRAME,-34.6451,-58.4175,, Quilmes 491,C1437,12,False,"['KEY', 'TRANSITCARD', 'PHONE']",['NUEVA POMPEYA'],,,1000.0,True,.
156,156 - Plaza Alemania,SMARTLITMAPFRAME,-34.5776,-58.4075,,2939 Cavia,11111,20,False,"['KEY', 'TRANSITCARD', 'PHONE']",['PALERMO'],,,1000.0,True,Cavia &  Av. Del Libertador
158,158 - VILLARROEL,SMARTLITMAPFRAME,-34.5927,-58.4451,,1321 Villarroel & Humboldt CABA,1111,20,False,"['KEY', 'TRANSITCARD', 'PHONE']",['ZONA 1'],,,1000.0,True,
161,161 - Humahuaca,SMARTLITMAPFRAME,-34.6021,-58.4197,,3912 Humahuaca,11111,20,False,"['KEY', 'TRANSITCARD', 'PHONE']",['ALMAGRO'],,,1000.0,True,Humahuaca &  Jeronimo Salguero
162,162 - LARREA Y BARTOLOMÉ MITRE,SMARTLITMAPFRAME,-34.609,-58.4019,,80 Larrea,C1030,20,False,"['KEY', 'TRANSITCARD', 'PHONE']",['BALVANERA'],,,1000.0,True,"80 Larrea & Mitre, Bartolome"
163,163 - ONCE II,SMARTLITMAPFRAME,-34.6096,-58.4064,,Bartolome Mitre & Av. Puyrredon,11111,30,False,"['KEY', 'TRANSITCARD', 'PHONE']",['BALVANERA'],,,1000.0,True,
164,164 - FACULTAD DE INGENIERIA,SMARTLITMAPFRAME,-34.6173,-58.3699,,AV. PASEO COLÓN 811,1111,20,False,"['KEY', 'TRANSITCARD', 'PHONE']",['SAN TELMO'],,,1000.0,True,Estados Unidos 21 &Av. Ing. Huergo
165,165 - PLAZA MONSEÑOR MIGUEL DE ANDREA,SMARTLITMAPFRAME,-34.597,-58.4076,,Dr Tomas Manuel De  Anchorena &  Jose A. Cabrera,C1170,12,False,"['KEY', 'TRANSITCARD', 'PHONE']",['RECOLETA'],,,1000.0,True,Dr Tomas Manuel De  Anchorena &  Jose A. Cabrera
166,166 - Cementerio de Recoleta,SMARTLITMAPFRAME,-34.5883,-58.3941,,Vicente López 2100,1111,12,False,"['KEY', 'TRANSITCARD', 'PHONE']",['RECOLETA'],,,1000.0,True,Vicente Lopez & Junin
167,275 - PLAZA 24 DE SEPTIEMBRE,SMARTLITMAPFRAME,-34.607,-58.4485,,1355 San Martin Av.,1111,24,False,"['KEY', 'TRANSITCARD', 'PHONE']",['VILLA CRESPO'],,,1000.0,True,
168,168 - Estados Unidos,SMARTLITMAPFRAME,-34.6186,-58.3812,,Estados Unidos & Lima,11111,20,False,"['KEY', 'TRANSITCARD', 'PHONE']",['CONSTITUCION'],,,1609.34,True,Estados Unidos & Lima
169,169 - FACULTAD DE PSICOLOGIA,SMARTLITMAPFRAME,-34.6131,-58.415,,Av. Hipólito Yrigoyen 3417,C1206,19,False,"['KEY', 'TRANSITCARD', 'PHONE']",['ALMAGRO'],,,1000.0,True,-
171,171 - Pasteur,SMARTLITMAPFRAME,-34.6033,-58.3998,,519 Pasteur,11111,20,False,"['KEY', 'TRANSITCARD', 'PHONE']",['BALVANERA'],,,1000.0,True,Pasteur & Lavalle
172,172 - BRASIL,SMARTLITMAPFRAME,-34.6254,-58.3711,,BRASIL&DEFENSA,C1143,16,False,"['KEY', 'TRANSITCARD', 'PHONE']",['SAN TELMO'],,,1000.0,True,BRASIL&DEFENSA
175,147 - Constitución,SMARTLITMAPFRAME,-34.6269,-58.3807,0.0,Avenida Juan de Garay 1050,111,54,False,"['KEY', 'TRANSITCARD', 'PHONE']",['CONSTITUCION'],147,147,984916.08,True,
176,067 - PARQUE SARMIENTO I,SMARTLITMAPFRAME,-34.5553,-58.4948,,Av. Dr. Ricardo Balbín 4402,1111,16,False,"['KEY', 'TRANSITCARD', 'PHONE']",['SAAVEDRA'],,,1000.0,True,
177,177 -PLANETARIO,SMARTLITMAPFRAME,-34.5682,-58.4121,,Av Casares y Av Belisario Roldan,11111,12,False,"['KEY', 'TRANSITCARD', 'PHONE']",['PALERMO'],,,1000.0,True,
179,179 - CASA SAN,SMARTLITMAPFRAME,-34.6385,-58.3643,,Olavarría 811,1111,16,False,"['KEY', 'TRANSITCARD', 'PHONE']",['BOCA'],,,1000.0,True,Olavarría 811
181,181 - BILLINGHURST Y MANSILLA,SMARTLITMAPFRAME,-34.5927,-58.412,,"1520 Billinghurst & Mansilla, Lucio Norberto, General",11111,20,False,"['KEY', 'TRANSITCARD', 'PHONE']",['RECOLETA'],,,1000.0,True,"1520 Billinghurst & Mansilla, Lucio Norberto, General"
182,182 - RAVIGNANI Y GUATEMALA,SMARTLITMAPFRAME,-34.578,-58.4352,,"2185 Ravignani, Emilio, Dr. & Guatemala",1111,20,False,"['KEY', 'TRANSITCARD', 'PHONE']",['PALERMO'],,,1000.0,True,
183,183 - VIRREY CEVALLOS,SMARTLITMAPFRAME,-34.6157,-58.39,,Mexico 1652,11111,27,False,"['KEY', 'TRANSITCARD', 'PHONE']",['MONSERRAT'],,,1609.34,True,Mexico 1652
184,184 - Pedro Echague,SMARTLITMAPFRAME,-34.6306,-58.3913,0.0,Pedro Echague 1878 & Combate De Los Pozos,11111,20,False,"['KEY', 'TRANSITCARD', 'PHONE']",['PARQUE PATRICIOS'],,,1000.0,True,
186,186 - MANZANA 66,SMARTLITMAPFRAME,-34.6136,-58.4064,,2875 Moreno,11111,20,False,"['KEY', 'TRANSITCARD', 'PHONE']",['BALVANERA'],,,1000.0,True,2875 Moreno & Catamarca
187,261 - QUINTEROS LIDORO,SMARTLITMAPFRAME,-34.5526,-58.4509,,"1483 Quinteros, Lidoro J. Av.",1111,16,False,"['KEY', 'TRANSITCARD', 'PHONE']",['BELGRANO'],,,1000.0,True,
188,373 - Jorgelina De Simone,SMARTLITMAPFRAME,-34.6239,-58.3912,,Cochabamba 1799,1111,24,False,"['KEY', 'TRANSITCARD', 'PHONE']",['CONSTITUCION'],,,984916.08,True,
189,189 - POSADAS,SMARTLITMAPFRAME,-34.5887,-58.3852,,1350 Posadas,11111,20,False,"['KEY', 'TRANSITCARD', 'PHONE']",['RETIRO'],,,1609.34,True,Posadas & Montevideo
190,190 - JUNCAL,SMARTLITMAPFRAME,-34.5851,-58.4111,,"Juncal & Salguero, Jeronimo",11111,20,False,"['KEY', 'TRANSITCARD', 'PHONE']",['PALERMO'],,,1000.0,True,"Juncal & Salguero, Jeronimo"
191,191 - Rivadavia y 9 de Julio,SMARTLITMAPFRAME,-34.6079,-58.3808,,Pellegrini Y Rivadavia Av.,11111,16,False,"['KEY', 'TRANSITCARD', 'PHONE']",['SAN NICOLAS'],,,1000.0,True,
193,193 - ARENALES Y AGUERO,SMARTLITMAPFRAME,-34.5909,-58.4062,,Arenales y Aguero,1111,20,False,"['KEY', 'TRANSITCARD', 'PHONE']",['RECOLETA'],,,1000.0,True,2882 Arenales & Aguero
194,194 - PERÓN Y ACUÑA DE FIGUEROA,SMARTLITMAPFRAME,-34.6061,-58.4225,,3997 TTE. GENERAL JUAN DOMINGO PERON,1111,16,False,"['KEY', 'TRANSITCARD', 'PHONE']",['ALMAGRO'],,,1000.0,True,3997 TTE. GENERAL JUAN DOMINGO PERON
196,196 - HOSPITAL ARGERICH,SMARTLITMAPFRAME,-34.6278,-58.366,,750 Pi y Margall,11111,20,False,"['KEY', 'TRANSITCARD', 'PHONE']",['BOCA'],,,1000.0,True,750 Pi Y Margall & Necochea
197,197 - PLAZA CIUDAD DE UDINE,SMARTLITMAPFRAME,-34.621,-58.493,0.0,Mercedes 1480,111111,20,False,"['KEY', 'TRANSITCARD', 'PHONE']",['FLORESTA'],,,1000.0,True,
199,199 - ESTADOS UNIDOS Y BOEDO,SMARTLITMAPFRAME,-34.6223,-58.416,,3568 Estados Unidos & Boedo Av.,11111,20,False,"['KEY', 'TRANSITCARD', 'PHONE']",['BOEDO'],,,20000.0,True,3568 Estados Unidos & Boedo Av.
200,200 - AUSTRIA Y FRENCH,SMARTLITMAPFRAME,-34.5883,-58.4043,,Austria 2075,C1425,16,False,"['KEY', 'TRANSITCARD', 'PHONE']",['RECOLETA'],,,500.0,True,Austria & Juncal
202,001 - FACULTAD DE DERECHO,SMARTLITMAPFRAME,-34.5837,-58.3906,,Av. Pres. Figueroa Alcorta 2120,11111,30,False,"['KEY', 'TRANSITCARD', 'PHONE']",['RECOLETA'],,,1000.0,True,
203,108 - Usina del Arte,SMARTLITMAPFRAME,-34.6288,-58.3563,,"Caffarena, Agustin R. & Don Pedro De Mendoza Av.",11111,24,False,"['KEY', 'TRANSITCARD', 'PHONE']",['BOCA'],,,1000.0,True,
204,167 - Hipólito Yrigoyen,SMARTLITMAPFRAME,-34.6149,-58.4278,,"4300 Yrigoyen, Hipolito Av.",11111,24,False,"['KEY', 'TRANSITCARD', 'PHONE']",['ALMAGRO'],,,10000.0,True,
206,159 - Fitz Roy & Gorriti,SMARTLITMAPFRAME,-34.585,-58.4373,,Fitz Roy & Gorriti,11111,16,False,"['KEY', 'TRANSITCARD', 'PHONE']",['PALERMO'],,,1000.0,True,
207,123 - BASUALDO Y RODO,SMARTLITMAPFRAME,-34.6524,-58.4874,,Guardia Nacional 1700,11111,16,False,"['KEY', 'TRANSITCARD', 'PHONE']",['MATADEROS'],,,1000.0,True,
208,145 - RAVIGNANI,SMARTLITMAPFRAME,-34.5807,-58.4384,,EMILIO RAVIGNANI 1802,C1414,20,False,"['KEY', 'TRANSITCARD', 'PHONE']",['PALERMO'],,,1000.0,True,EMILIO RAVIGNANI 1802
210,335 - General Urquiza,SMARTLITMAPFRAME,-34.5722,-58.4113,,Figueroa Alcorta & Sarmiento,11111,20,False,"['KEY', 'TRANSITCARD', 'PHONE']",['PALERMO'],,,1000.0,True,
212,129 - Velasco,SMARTLITMAPFRAME,-34.6003,-58.4349,,J.Ramirez de Velasco 285,C1414,19,False,"['KEY', 'TRANSITCARD', 'PHONE']",['VILLA CRESPO'],,,1000.0,True,
213,136 - Acevedo,SMARTLITMAPFRAME,-34.5997,-58.4427,,Acevedo y Padilla,11111,20,False,"['KEY', 'TRANSITCARD', 'PHONE']",['VILLA CRESPO'],,,1000.0,True,
215,113 - Guatemala,SMARTLITMAPFRAME,-34.5859,-58.425,,Guatemala 4773,11111,20,False,"['KEY', 'TRANSITCARD', 'PHONE']",['PALERMO'],,,1000.0,True,
216,059 - Coronel Diaz,SMARTLITMAPFRAME,-34.59,-58.4115,,Guemes 3330 & Coronel Diaz,11111,20,False,"['KEY', 'TRANSITCARD', 'PHONE']",['PALERMO'],,,1000.0,True,
219,140 - Las Casas,SMARTLITMAPFRAME,-34.636,-58.4156,,Metan 3661,11111,23,False,"['KEY', 'TRANSITCARD', 'PHONE']",['BOEDO'],,,1000.0,True,
220,097 - Avelino Diaz,SMARTLITMAPFRAME,-34.6351,-58.4276,,Avelino Diaz&Doblas,11111,15,False,"['KEY', 'TRANSITCARD', 'PHONE']",['PARQUE CHACABUCO'],,,1000.0,True,
222,160 - Godoy Cruz y Libertador,SMARTLITMAPFRAME,-34.5759,-58.4185,,Av. Cerviño 4301,11111,20,False,"['KEY', 'TRANSITCARD', 'PHONE']",['PALERMO'],,,1000.0,True,
223,178 - José Marmol,SMARTLITMAPFRAME,-34.6234,-58.4249,,803 José Marmol,11111,16,False,"['KEY', 'TRANSITCARD', 'PHONE']",['BOEDO'],,,1000.0,True,803 Jose Marmol & Estados Unidos
227,188 - Aranguren,SMARTLITMAPFRAME,-34.6104,-58.4328,,Dr. Juan Felipe Aranguren 131,11111,20,False,"['KEY', 'TRANSITCARD', 'PHONE']",['CABALLITO'],,,1000.0,True,
228,010 - Madero UCA,SMARTLITMAPFRAME,-34.6165,-58.3657,,"1600 Moreau De Justo, Alicia Av.",C1107,16,False,"['KEY', 'TRANSITCARD', 'PHONE']",['PUERTO MADERO'],,,1000.0,True,"1600 Moreau De Justo, Alicia Av."
229,243 - PLAZOLETA CELEDONIO FLORES,SMARTLITMAPFRAME,-34.5816,-58.4515,,Cordoba 6599,11111,12,False,"['KEY', 'TRANSITCARD', 'PHONE']",['ZONA 1'],243,243,1000.0,True,Cordoba 6599
230,259 - PLAZA CASTELLI,SMARTLITMAPFRAME,-34.5678,-58.4645,,Echeverria 3249,11111,16,False,"['KEY', 'TRANSITCARD', 'PHONE']",['BELGRANO'],,,1000.0,True,Echeverria 3249
231,384 - PLAZA BENITO NAZAR,SMARTLITMAPFRAME,-34.6051,-58.446,,VALENTIN VIRASORO 1349,11111,16,False,"['KEY', 'TRANSITCARD', 'PHONE']",['VILLA CRESPO'],,,1000.0,True,
232,252 - Tamborini,SMARTLITMAPFRAME,-34.56,-58.4791,,Tamborini 3821,11111,20,False,"['KEY', 'TRANSITCARD', 'PHONE']",['COGHLAN'],,,1000.0,True,
234,344 - UNIVERSIDAD DI TELLA,SMARTLITMAPFRAME,-34.548,-58.4469,,Figueroa Alcorta 7350,C1428,20,False,"['KEY', 'TRANSITCARD', 'PHONE']",['BELGRANO'],,,1000.0,True,Figueroa Alcorta 7350
235,281 - Villa Urquiza,SMARTLITMAPFRAME,-34.5737,-58.4869,,Av. Triunvirato 4800,1111,24,False,"['KEY', 'TRANSITCARD', 'PHONE']",['VILLA URQUIZA'],,,1000.0,True,
236,254 - Plaza Rafael Hernandez,SMARTLITMAPFRAME,-34.5622,-58.4552,,Vuelta de Obligado 2004,11111,16,False,"['KEY', 'TRANSITCARD', 'PHONE']",['BELGRANO'],,,1000.0,True,
237,302 - ESTACION VILLA LURO,SMARTLITMAPFRAME,-34.6367,-58.5014,,Virgilio 90,1111,16,False,"['KEY', 'TRANSITCARD', 'PHONE']",['VILLA LURO'],,,1609.34,True,
239,391 - Plaza República de Ecuador,SMARTLITMAPFRAME,-34.5653,-58.4206,,Av. Pres. Figueroa Alcorta 5201,11111,20,False,"['KEY', 'TRANSITCARD', 'PHONE']",['PALERMO'],,,1000.0,True,
241,348 - Villa del Parque,SMARTLITMAPFRAME,-34.6009,-58.4941,,"Gutierrez, Ricardo 3105",11111,12,False,"['KEY', 'TRANSITCARD', 'PHONE']",['VILLA DEL PARQUE'],,,1000.0,True,
242,103 - MALBA,SMARTLITMAPFRAME,-34.5769,-58.404,,Av. Pres. Figueroa Alcorta 3451,11111,31,False,"['KEY', 'TRANSITCARD', 'PHONE']",['PALERMO'],,,1000.0,True,
245,248 - Husares,SMARTLITMAPFRAME,-34.5526,-58.4429,,Husares 2201,11111,16,False,"['KEY', 'TRANSITCARD', 'PHONE']",['BELGRANO'],,,1000.0,True,
247,282 - Tronador,SMARTLITMAPFRAME,-34.5839,-58.4665,,Triunvirato Av. & Tronador,11111,18,False,"['KEY', 'TRANSITCARD', 'PHONE']",['VILLA ORTUZAR'],,,1000.0,True,
248,346 - Plaza Zapiola,SMARTLITMAPFRAME,-34.5735,-58.4746,,2001 Donado,11111,24,False,"['KEY', 'TRANSITCARD', 'PHONE']",['VILLA URQUIZA'],,,1000.0,True,
251,388 - Plaza Jose C Paz,SMARTLITMAPFRAME,-34.6417,-58.4025,,Dr. Prof. Pedro Chutro 2881,1111,12,False,"['KEY', 'TRANSITCARD', 'PHONE']",['PARQUE PATRICIOS'],,,1000.0,True,
252,331 - CALIFORNIA,SMARTLITMAPFRAME,-34.6471,-58.3743,,California 1774 y General Hornos,1111,23,False,"['KEY', 'TRANSITCARD', 'PHONE']",['BARRACAS'],,,1000.0,True,California y General Hornos
253,383 - BOEDO Y VENEZUELA,SMARTLITMAPFRAME,-34.6164,-58.4171,,BOEDO 339,C1210,16,False,"['KEY', 'TRANSITCARD', 'PHONE']",['ALMAGRO'],,,1000.0,True,BOEDO 339
254,276 - PRIMERA JUNTA,SMARTLITMAPFRAME,-34.6208,-58.4414,,Av. Rivadavia 5408 ,C1424,16,False,"['KEY', 'TRANSITCARD', 'PHONE']",['CABALLITO'],,,1000.0,True,
255,374 - Puan,SMARTLITMAPFRAME,-34.6221,-58.4485,,Yerbal 1290,1111,20,False,"['KEY', 'TRANSITCARD', 'PHONE']",['CABALLITO'],,,1000.0,True,
257,264 - Plaza Marcos Sastre,SMARTLITMAPFRAME,-34.5708,-58.4812,,Miller & Monroe,11111,24,False,"['KEY', 'TRANSITCARD', 'PHONE']",['VILLA URQUIZA'],,,1000.0,True,
258,336 - La Pampa,SMARTLITMAPFRAME,-34.5655,-58.4553,,La Pampa 2512 & Ciudad de la Paz,11111,16,False,"['KEY', 'TRANSITCARD', 'PHONE']",['BELGRANO'],,,1000.0,True,
259,290 - Club Excursionistas,SMARTLITMAPFRAME,-34.5592,-58.4442,,Migueletes 1782 (y La Pampa),C1426,16,False,"['KEY', 'TRANSITCARD', 'PHONE']",['BELGRANO'],,,1000.0,True,Migueletes 1782 (y La Pampa)
260,371 - Paseo de las Americas,SMARTLITMAPFRAME,-34.5531,-58.4352,,Av. Pres Figueroa Alcorta 6400,11111,12,False,"['KEY', 'TRANSITCARD', 'PHONE']",['BELGRANO'],,,1000.0,True,
261,272 - Plaza Bruno Giordano,SMARTLITMAPFRAME,-34.6162,-58.4406,,Bruno Giordano&Neuquen,11111,16,False,"['KEY', 'TRANSITCARD', 'PHONE']",['CABALLITO'],,,1000.0,True,
262,349 - Plaza Saenz Peña,SMARTLITMAPFRAME,-34.6097,-58.4673,,Andrés Lamas 1699,11111,16,False,"['KEY', 'TRANSITCARD', 'PHONE']",['VILLA GENERAL MITRE'],,,1000.0,True,Andrés Lamas & Remedios de Escalada de San Martín
263,270 - PLAZA DEL ANGEL GRIS,SMARTLITMAPFRAME,-34.622,-58.4576,,Calcena & Avellaneda Av.,1111,20,False,"['KEY', 'TRANSITCARD', 'PHONE']",['FLORES'],,,1000.0,True,
264,283 - BALBIN II,SMARTLITMAPFRAME,-34.5559,-58.4812,,Av. Dr. Ricardo Balbín y Crisólogo Larralde,1111,16,False,"['KEY', 'TRANSITCARD', 'PHONE']",['SAAVEDRA'],,,1000.0,True,
265,361 - Plaza Don Segundo Sombra,SMARTLITMAPFRAME,-34.642,-58.4505,,2347 Santander,1111,28,False,"['KEY', 'TRANSITCARD', 'PHONE']",['FLORES'],,,1000.0,True,
267,315 - BEIRO Y SAN MARTÍN,SMARTLITMAPFRAME,-34.5976,-58.4985,,3209 Av. Francisco Beiro,1111,16,False,"['KEY', 'TRANSITCARD', 'PHONE']",['VILLA DEVOTO'],,,1000.0,True,3209 Av. Francisco Beiro
268,399 - GARCIA DEL RIO,SMARTLITMAPFRAME,-34.5503,-58.477,,Av. García del Río 3182,1111,36,False,"['KEY', 'TRANSITCARD', 'PHONE']",['SAAVEDRA'],,,1000.0,True,
269,260 - SAN MIGUEL DE GARICOITS,SMARTLITMAPFRAME,-34.5773,-58.4578,,"Delgado & Loreto, Virrey",1111,18,False,"['KEY', 'TRANSITCARD', 'PHONE']",['COLEGIALES'],,,1000.0,True,
270,370 - Beauchef,SMARTLITMAPFRAME,-34.6401,-58.4303,,1995 Beauchef,1111,28,False,"['KEY', 'TRANSITCARD', 'PHONE']",['PARQUE CHACABUCO'],,,1000.0,True,
271,365 - Venancio Flores,SMARTLITMAPFRAME,-34.63,-58.4737,,Venancio Flores 3170,11111,20,False,"['KEY', 'TRANSITCARD', 'PHONE']",['FLORES'],,,1000.0,True,
273,223 - GAINZA,SMARTLITMAPFRAME,-34.6168,-58.4468,,"494 Gainza, Martin De, Gral.",1111,16,False,"['KEY', 'TRANSITCARD', 'PHONE']",['CABALLITO'],,,1000.0,True,
275,256 - PLAZA NORUEGA,SMARTLITMAPFRAME,-34.5623,-58.4593,,Amenabar y Mendoza,1111,20,False,"['KEY', 'TRANSITCARD', 'PHONE']",['BELGRANO'],,,1000.0,True,
277,292 - PLAZA BOLIVIA,SMARTLITMAPFRAME,-34.5635,-58.4361,,Olleros Av. & Del Libertador Av.,1111,17,False,"['KEY', 'TRANSITCARD', 'PHONE']",['PALERMO'],,,1000.0,True,
278,233 - MONROE,SMARTLITMAPFRAME,-34.5641,-58.4698,,2519 Superi,1111,16,False,"['KEY', 'TRANSITCARD', 'PHONE']",['COGHLAN'],,,1000.0,True,
280,222 - SIMON BOLIVAR,SMARTLITMAPFRAME,-34.6335,-58.4494,,"1701 Fernandez Moreno, Baldomero",1111,28,False,"['KEY', 'TRANSITCARD', 'PHONE']",['PARQUE CHACABUCO'],,,1000.0,True,
281,350 - Plaza Irlanda,SMARTLITMAPFRAME,-34.6138,-58.4583,,Av. Gaona 2200,1111,24,False,"['KEY', 'TRANSITCARD', 'PHONE']",['CABALLITO'],,,1000.0,True,
284,229 - RIGLOS,SMARTLITMAPFRAME,-34.631,-58.4351,,1019 Riglos,1111,20,False,"['KEY', 'TRANSITCARD', 'PHONE']",['PARQUE CHACABUCO'],,,1000.0,True,
289,255 - BARRANCAS DE BELGRANO,SMARTLITMAPFRAME,-34.5598,-58.4483,,"Sucre, Antonio Jose De, Mcal. Y Vertiz Virrey Av.",1111,24,False,"['KEY', 'TRANSITCARD', 'PHONE']",['BELGRANO'],,,1000.0,True,
291,244 - UADE,SMARTLITMAPFRAME,-34.6172,-58.3816,,Lima 750,1111,16,False,"['KEY', 'TRANSITCARD', 'PHONE']",['MONSERRAT'],,,1609.34,True,
299,221 - CULPINA,SMARTLITMAPFRAME,-34.6317,-58.4661,,Culpina 121,11111,20,False,"['KEY', 'TRANSITCARD', 'PHONE']",['FLORES'],,,1000.0,True,
301,309 - UTN II,SMARTLITMAPFRAME,-34.6604,-58.4676,,Saraza y Mozart,1407,20,False,"['KEY', 'TRANSITCARD', 'PHONE']",['VILLA SOLDATI'],,,1000.0,True,
302,340 - PLAZA NUEVA POMPEYA,SMARTLITMAPFRAME,-34.6518,-58.4158,,3817 Traful,1111,16,False,"['KEY', 'TRANSITCARD', 'PHONE']",['NUEVA POMPEYA'],,,144840.6,True,
304,395 - Agronomia II,SMARTLITMAPFRAME,-34.5893,-58.4848,,Av. Francisco Beiró 2120,1111,20,False,"['KEY', 'TRANSITCARD', 'PHONE']",['AGRONOMIA'],,,1000.0,True,
307,341 - COMUNA 4,SMARTLITMAPFRAME,-34.65,-58.4248,,AV PERITO MORENO 2881,C1437,12,False,"['KEY', 'TRANSITCARD', 'PHONE']",['NUEVA POMPEYA'],,,1000.0,True,.
308,251 - Solar de la Abadía,SMARTLITMAPFRAME,-34.5676,-58.4368,,Maure 1819,11111,28,False,"['KEY', 'TRANSITCARD', 'PHONE']",['PALERMO'],,,1000.0,True,
309,298 - PLAZA DR. JUAN B. TERAN,SMARTLITMAPFRAME,-34.6214,-58.5198,,Nogoya 5525,11111,16,False,"['KEY', 'TRANSITCARD', 'PHONE']",['VILLA REAL'],,,1000.0,True,
310,356 - ESTACIÓN LUGANO,SMARTLITMAPFRAME,-34.6795,-58.4742,,Martiniano Leguizamón 4401,11111,12,False,"['KEY', 'TRANSITCARD', 'PHONE']",['VILLA LUGANO'],,,1000.0,True,
311,213 - Hospital Alvear,SMARTLITMAPFRAME,-34.5972,-58.4742,,Av. Warnes 2626,11111,16,False,"['KEY', 'TRANSITCARD', 'PHONE']",['PATERNAL'],,,1000.0,True,
316,205 - SAN MARTIN,SMARTLITMAPFRAME,-34.6056,-58.4535,,1471 Cucha Cucha,1111,28,False,"['KEY', 'TRANSITCARD', 'PHONE']",['VILLA CRESPO'],,,1000.0,True,
318,285 - ESPINOSA,SMARTLITMAPFRAME,-34.6039,-58.4573,,1785 Espinosa,1111,20,False,"['KEY', 'TRANSITCARD', 'PHONE']",['VILLA CRESPO'],,,1000.0,True,
322,289 - MONTAÑESES,SMARTLITMAPFRAME,-34.5513,-58.4542,,2786 Montañeses,1111,20,False,"['KEY', 'TRANSITCARD', 'PHONE']",['BELGRANO'],,,1000.0,True,
323,240 - ECHEVERRIA,SMARTLITMAPFRAME,-34.5654,-58.4593,,1981 Vidal,1111,24,False,"['KEY', 'TRANSITCARD', 'PHONE']",['BELGRANO'],,,1000.0,True,
324,280 - JURAMENTO,SMARTLITMAPFRAME,-34.5789,-58.4841,,5209 Juramento,1111,16,False,"['KEY', 'TRANSITCARD', 'PHONE']",['VILLA URQUIZA'],,,1000.0,True,
327,366 - VILLA OLÍMPICA,SMARTLITMAPFRAME,-34.6771,-58.4543,,Escalada 4347,1111,12,False,"['KEY', 'TRANSITCARD', 'PHONE']",['VILLA LUGANO'],,,1000.0,True,.
329,100 - Plaza Gurruchaga,SMARTLITMAPFRAME,-34.5931,-58.4352,,1078 Gurruchaga,1111,20,False,"['KEY', 'TRANSITCARD', 'PHONE']",['VILLA CRESPO'],,,1000.0,True,
330,148 -La Paternal,SMARTLITMAPFRAME,-34.6008,-58.4721,,PUNTA  ARENAS  1798,C1416,20,False,"['KEY', 'TRANSITCARD', 'PHONE']",['PATERNAL'],,,1000.0,True,PUNTA  ARENAS  1798
333,203 - Beiro,SMARTLITMAPFRAME,-34.6008,-58.5034,,"Beiro 3572, CABA",1111,20,False,"['KEY', 'TRANSITCARD', 'PHONE']",['DEVOTO'],,,1000.0,True,
335,206 - Galicia,SMARTLITMAPFRAME,-34.6159,-58.471,,2502 Galicia,1111,27,False,"['KEY', 'TRANSITCARD', 'PHONE']",['VILLA GENERAL MITRE'],,,1000.0,True,
336,207 - PLAZA ARENALES,SMARTLITMAPFRAME,-34.5997,-58.5111,,Nueva York 3949,1111,28,False,"['KEY', 'TRANSITCARD', 'PHONE']",['DEVOTO'],,,1000.0,True,
340,359 - PLAZA BALCARCE,SMARTLITMAPFRAME,-34.5475,-58.4678,,Jaramillo 2312,1111,20,False,"['KEY', 'TRANSITCARD', 'PHONE']",['Nuñez'],,,1000.0,True,
342,218 - Campana,SMARTLITMAPFRAME,-34.6168,-58.4843,,1523 Campana,1111,20,False,"['KEY', 'TRANSITCARD', 'PHONE']",['VILLA SANTA RITA'],,,1000.0,True,
348,231 - Margariños Cervantes,SMARTLITMAPFRAME,-34.6105,-58.4744,,2465 Margariños Cervantes,1111,12,False,"['KEY', 'TRANSITCARD', 'PHONE']",['VILLA GENERAL MITRE'],,,1000.0,True,
349,232 - Sucre y Martinez,SMARTLITMAPFRAME,-34.5704,-58.4663,,Mcal. Antonio José de Sucre 3515,C1430,16,False,"['KEY', 'TRANSITCARD', 'PHONE']",['BELGRANO'],,,1000.0,True,
353,237 - Madero Office,SMARTLITMAPFRAME,-34.599,-58.3647,,"367 Sanchez De Thompson, Mariquita",1111,28,False,"['KEY', 'TRANSITCARD', 'PHONE']",['PUERTO MADERO'],,,1609.34,True,
355,242 - Plazoleta Rafael del Riego,SMARTLITMAPFRAME,-34.5675,-58.4464,,o´higins 1327,1111,16,False,"['KEY', 'TRANSITCARD', 'PHONE']",['PALERMO'],,,1000.0,True,
358,249 - Vidal,SMARTLITMAPFRAME,-34.5603,-58.4636,,Vidal 2501,C1428,20,False,"['KEY', 'TRANSITCARD', 'PHONE']",['BELGRANO'],,,1000.0,True,
359,250 - Fleni,SMARTLITMAPFRAME,-34.5556,-58.4505,,2292 Montañeses,1111,20,False,"['KEY', 'TRANSITCARD', 'PHONE']",['BELGRANO'],,,1000.0,True,
361,258 - Plaza J.J. Paso,SMARTLITMAPFRAME,-34.5692,-58.4536,,1399 Moldes,1111,20,False,"['KEY', 'TRANSITCARD', 'PHONE']",['COLEGIALES'],,,1000.0,True,
362,262 - Holmberg,SMARTLITMAPFRAME,-34.566,-58.4799,,Holmberg 2819 y Nahuel Huapi,C1430,12,False,"['KEY', 'TRANSITCARD', 'PHONE']",['VILLA URQUIZA'],,,1000.0,True,
363,354 - José Martí,SMARTLITMAPFRAME,-34.6439,-58.4631,,Eva Perón 3321,1111,16,False,"['KEY', 'TRANSITCARD', 'PHONE']",['FLORES'],,,1000.0,True,
364,381 - Matienzo Y Arce,SMARTLITMAPFRAME,-34.5702,-58.4356,,Teniente Benjamín Matienzo 1998,C1426,28,False,"['KEY', 'TRANSITCARD', 'PHONE']",['PALERMO'],,,1000.0,True,
366,360 - Plaza Ramon Falcon,SMARTLITMAPFRAME,-34.6353,-58.4825,,Cnel. Ramón L. Falcón 3992,C1407,12,False,"['KEY', 'TRANSITCARD', 'PHONE']",['VELEZ SARFIELD'],,,1609.34,True,
367,287 - Belaustegui,SMARTLITMAPFRAME,-34.6167,-58.4777,,Belaustegui 2910,C1416,16,False,"['KEY', 'TRANSITCARD', 'PHONE']",['VILLA SANTA RITA'],,,1609.34,True,
368,378 - AGRONOMIA,SMARTLITMAPFRAME,-34.5981,-58.4821,,4351 San Martin,1111,12,False,"['KEY', 'TRANSITCARD', 'PHONE']",['AGRONOMIA'],,,1000.0,True,
369,304 - Navarro,SMARTLITMAPFRAME,-34.5922,-58.4918,,Navarro 2625,1111,16,False,"['KEY', 'TRANSITCARD', 'PHONE']",['AGRONOMIA'],,,1.0,True,
370,305 - Plaza Martin Rodriguez,SMARTLITMAPFRAME,-34.591,-58.5003,,3016 Pareja,1111,20,False,"['KEY', 'TRANSITCARD', 'PHONE']",['AGRONOMIA'],,,1000.0,True,
371,269 - Plaza De La Misericordia,SMARTLITMAPFRAME,-34.6317,-58.4553,,LAUTARO 400,1111,12,False,"['KEY', 'TRANSITCARD', 'PHONE']",['FLORES'],,,1000.0,True,
372,322 - MARTÍ Y DIRECTORIO,SMARTLITMAPFRAME,-34.6364,-58.4701,,"404 Marti, Jose",1111,20,False,"['KEY', 'TRANSITCARD', 'PHONE']",['FLORES'],,,1000.0,True,
373,265 - Plaza Exodo Jujeño,SMARTLITMAPFRAME,-34.5823,-58.4811,,Liverpool 2812,1111,20,False,"['KEY', 'TRANSITCARD', 'PHONE']",['PARQUE CHAS'],,,1609.34,True,
374,367 - Eva Perón,SMARTLITMAPFRAME,-34.6471,-58.4698,,Primera Junta 3898,1111,16,False,"['KEY', 'TRANSITCARD', 'PHONE']",['PARQUE AVELLANEDA'],,,1000.0,True,MARIANO ACOSTA Y PRIMERA JUNTA
375,301 - Arregui Y Terrada,SMARTLITMAPFRAME,-34.6046,-58.4848,,2793 Arregui,1111,16,False,"['KEY', 'TRANSITCARD', 'PHONE']",['VILLA DEL PARQUE'],,,1609.34,True,
376,324 - Las Victorias,SMARTLITMAPFRAME,-34.6274,-58.4881,,Av. Gaona 4660,C1407,24,False,"['KEY', 'TRANSITCARD', 'PHONE']",['FLORESTA'],,,1000.0,True,
378,215 - HOSPITAL ALVAREZ,SMARTLITMAPFRAME,-34.6231,-58.4683,,Bolivia 683,1111,20,False,"['KEY', 'TRANSITCARD', 'PHONE']",['FLORES'],,,1000.0,True,
379,390 - De Los Ombues,SMARTLITMAPFRAME,-34.5602,-58.4281,,Av. de los Ombúes 300,1111,20,False,"['KEY', 'TRANSITCARD', 'PHONE']",['PALERMO'],,,1000.0,True,
381,274 - Gavilán,SMARTLITMAPFRAME,-34.6162,-58.4659,,Gavilán 1200,111,16,False,"['KEY', 'TRANSITCARD', 'PHONE']",['VILLA GENERAL MITRE'],,,1000.0,True,
382,204 - Biarritz,SMARTLITMAPFRAME,-34.6054,-58.4773,,Biarritz 2403,11111,16,False,"['KEY', 'TRANSITCARD', 'PHONE']",['VILLA DEL PARQUE'],,,1000.0,True,
383,263 - Plaza Echeverria,SMARTLITMAPFRAME,-34.5718,-58.4895,,Av. Triunvirato 5100 y Nahuel Huapi 5150,C1431,20,False,"['KEY', 'TRANSITCARD', 'PHONE']",['VILLA URQUIZA'],,,1000.0,True,Plaza Echeverria
384,267 - Plaza 25 De Agosto,SMARTLITMAPFRAME,-34.5795,-58.4618,,14 de julio de 1194,1111,18,False,"['KEY', 'TRANSITCARD', 'PHONE']",['VILLA ORTUZAR'],,,1609.34,True,
385,268 - Plaza Aristóbulo Del Valle,SMARTLITMAPFRAME,-34.6062,-58.4931,,Campana & Marcos Sastre  ,1111,15,False,"['KEY', 'TRANSITCARD', 'PHONE']",['VILLA DEL PARQUE'],,,1000.0,True,Marcos Sastre & Campana
386,277 - Coghlan,SMARTLITMAPFRAME,-34.5654,-58.4759,,2647 Estomba,1111,8,False,"['KEY', 'TRANSITCARD', 'PHONE']",['COGHLAN'],,,1000.0,True,
387,278 - Donato Alvarez,SMARTLITMAPFRAME,-34.602,-58.4656,,"1540 Garcia, Juan Agustin",1111,16,False,"['KEY', 'TRANSITCARD', 'PHONE']",['PATERNAL'],,,1000.0,True,
392,297 - TRONADOR Y GARCÍA DEL RÍO,SMARTLITMAPFRAME,-34.5546,-58.4854,,Tronador y Garcia del Rio,1111,16,False,"['KEY', 'TRANSITCARD', 'PHONE']",['COGHLAN'],,,1.0,True,
393,300 - Jose Artigas,SMARTLITMAPFRAME,-34.5903,-58.4669,,Av. del Campo 1301,1111,28,False,"['KEY', 'TRANSITCARD', 'PHONE']",['PATERNAL'],,,1000.0,True,
395,303 - Huaura,SMARTLITMAPFRAME,-34.5968,-58.4533,,Huaura 1405 y Fitz Roy,1111,16,False,"['KEY', 'TRANSITCARD', 'PHONE']",['VILLA CRESPO'],,,1000.0,True,
400,313 - De Los Incas,SMARTLITMAPFRAME,-34.579,-58.4698,,Av. de los Incas 4138,C1427,20,False,"['KEY', 'TRANSITCARD', 'PHONE']",['VILLA ORTUZAR'],,,1000.0,True,
403,316 - Buenos Aires,SMARTLITMAPFRAME,-34.6447,-58.3939,,Suarez 3150,1111,31,False,"['KEY', 'TRANSITCARD', 'PHONE']",['BARRACAS'],,,1000.0,True,
407,330 - Parque Avellaneda,SMARTLITMAPFRAME,-34.6424,-58.4783,,Remedios 3895,C1407,16,False,"['KEY', 'TRANSITCARD', 'PHONE']",['PARQUE AVELLANEDA'],,,1000.0,True,
408,364 - CERRETTI Y MANUELA PEDRAZA,SMARTLITMAPFRAME,-34.5691,-58.5002,,Ceretti 3407,1111,16,False,"['KEY', 'TRANSITCARD', 'PHONE']",['VILLA URQUIZA'],,,1.0,True,
412,372 - VILLA SOLDATI,SMARTLITMAPFRAME,-34.6604,-58.432,,Carlos María Ramírez 2510,C1437,12,False,"['KEY', 'TRANSITCARD', 'PHONE']",['VILLA SOLDATI'],,,1000.0,True,
413,382 - MERCADO DE HACIENDA MATADEROS,SMARTLITMAPFRAME,-34.6618,-58.5013,,Av. Lisandro de la Torre 2319,C1440,8,False,"['KEY', 'TRANSITCARD', 'PHONE']",['MATADEROS'],,,1000.0,True,
414,385 - Franklin,SMARTLITMAPFRAME,-34.6113,-58.45,,Franklin 1100,1111,16,False,"['KEY', 'TRANSITCARD', 'PHONE']",['CABALLITO'],,,1000.0,True,
416,257 - Plaza Francisco Ramirez,SMARTLITMAPFRAME,-34.5533,-58.4691,,"2700 Pedraza, Manuela",1111,27,False,"['KEY', 'TRANSITCARD', 'PHONE']",['Nuñez'],,,1000.0,True,
417,127 - PLAZA LEONARDO N. ALEM,SMARTLITMAPFRAME,-34.5763,-58.5025,,Cochrane 2407,1111,20,False,"['KEY', 'TRANSITCARD', 'PHONE']",['VILLA URQUIZA'],,,1000.0,True,
418,345 - Plaza Mafalda,SMARTLITMAPFRAME,-34.5809,-58.4446,,Conde & Concepción Arenal,1111,16,False,"['KEY', 'TRANSITCARD', 'PHONE']",['COLEGIALES'],,,1000.0,True,
420,375 - Ciudad Universitaria I,SMARTLITMAPFRAME,-34.5446,-58.4396,,INTENDENTE GUIRALDES 2160 - PABELLÓN I,1111,16,False,"['KEY', 'TRANSITCARD', 'PHONE']",['BELGRANO'],,,1.0,True,
422,379 - PARQUE SARMIENTO II,SMARTLITMAPFRAME,-34.5645,-58.5029,,Alfonsina Storni 3771,1111,16,False,"['KEY', 'TRANSITCARD', 'PHONE']",['SAAVEDRA'],,,1.0,True,
423,043 - PLAZA ALBERDI,SMARTLITMAPFRAME,-34.5593,-58.4878,,Crisólogo Larralde 4544,1111,12,False,"['KEY', 'TRANSITCARD', 'PHONE']",['SAAVEDRA'],,,1.0,True,
424,387 - Luna,SMARTLITMAPFRAME,-34.6398,-58.3991,,Luna 301,1111,12,False,"['KEY', 'TRANSITCARD', 'PHONE']",['PARQUE PATRICIOS'],,,1000.0,True,
425,394 - Av. La Plata,SMARTLITMAPFRAME,-34.643,-58.4228,,Av. La Plata 2400,C1437,20,False,"['KEY', 'TRANSITCARD', 'PHONE']",['NUEVA POMPEYA'],,,1000.0,True,
426,396 - PLAZA ALBERTI,SMARTLITMAPFRAME,-34.5557,-58.4579,,ARCOS 2665,1111,20,False,"['KEY', 'TRANSITCARD', 'PHONE']",['BELGRANO'],,,1000.0,True,
427,397 - PARQUE SANTOJANNI,SMARTLITMAPFRAME,-34.6484,-58.5136,,ACASSUSO 6373,C1408,16,False,"['KEY', 'TRANSITCARD', 'PHONE']",['LINIERS'],,,1000.0,True,
428,225 - HOSPITAL TORNU,SMARTLITMAPFRAME,-34.5875,-58.474,,1052 Avalos,1111,20,False,"['KEY', 'TRANSITCARD', 'PHONE']",['PARQUE CHAS'],,,1000.0,True,
429,201 - PLAZA EJERCITO DE LOS ANDES,SMARTLITMAPFRAME,-34.639,-58.5101,,Av. Rivadavia y Albariño,1111,16,False,"['KEY', 'TRANSITCARD', 'PHONE']",['VILLA LURO'],,,1000.0,True,
431,362 - PARQUE DE LA MEMORIA,SMARTLITMAPFRAME,-34.5426,-58.4369,,Av. Costanera Rafael Obligado 7200,1213,20,False,"['KEY', 'TRANSITCARD', 'PHONE']",['BELGRANO'],,,1000.0,True,
432,187 - Jose Maria Moreno,SMARTLITMAPFRAME,-34.6199,-58.4358,,141 Jose Maria Moreno,1111,28,False,"['KEY', 'TRANSITCARD', 'PHONE']",['CABALLITO'],,,1000.0,True,
433,273 - Plazoleta Colombia,SMARTLITMAPFRAME,-34.6377,-58.3737,,1619 Brandsen,1111,24,False,"['KEY', 'TRANSITCARD', 'PHONE']",['BARRACAS'],,,1000.0,True,
434,247 - PLAZA LUCIO DEMARE,SMARTLITMAPFRAME,-34.5457,-58.4651,,O`Higgins 3750,11111,20,False,"['KEY', 'TRANSITCARD', 'PHONE']",['Nuñez'],,,1000.0,True,
435,227 -Club Ciudad de Buenos Aires,SMARTLITMAPFRAME,-34.5445,-58.4595,,Miguel Sanchez y Av Libertadores,1111,24,False,"['KEY', 'TRANSITCARD', 'PHONE']",['Nuñez'],,,1000.0,True,
436,253 - Plaza Colegiales,SMARTLITMAPFRAME,-34.5765,-58.4435,1.0,Tte. Benjamin Matienzo 2886,C1426,16,False,"['KEY', 'TRANSITCARD', 'PHONE']",['PALERMO'],,,1000.0,True,
440,142 - ARMENIA,SMARTLITMAPFRAME,-34.5906,-58.4289,0.0,ARMENIA 1525 y GORRITI,C1414,16,False,"['KEY', 'TRANSITCARD', 'PHONE']",['PALERMO'],.,.,1000.0,True,
441,016 - Legislatura,SMARTLITMAPFRAME,-34.6098,-58.3748,,"169 Peru & Roca, Julio A., Presidente Diagonal Sur Av.",1111,20,False,"['KEY', 'TRANSITCARD', 'PHONE']",['MONSERRAT'],,,1609.34,True,
444,061 - Ministerio de Economia,SMARTLITMAPFRAME,-34.6089,-58.3707,,"Balcarce e Yrigoyen, Hipolito Av.",1111,24,False,"['KEY', 'TRANSITCARD', 'PHONE']",['SAN NICOLAS'],,,1000.0,True,
448,393 - Barrio 31,SMARTLITMAPFRAME,-34.5821,-58.3788,,Islas Galápagos 2800,1111,32,False,"['KEY', 'TRANSITCARD', 'PHONE']",['RETIRO'],,,1000.0,True,
449,352 - San Jose de Flores,SMARTLITMAPFRAME,-34.6288,-58.4633,,Av. Rivadavia 6955,1111,24,False,"['KEY', 'TRANSITCARD', 'PHONE']",['FLORES'],,,1000.0,True,
453,028 - Plaza de la Bandera,SMARTLITMAPFRAME,-34.6295,-58.4945,0.0,Av. Gaona 5181,C1407,20,False,"['KEY', 'TRANSITCARD', 'PHONE']",['VELEZ SARFIELD'],,,1000.0,True,
454,176 - Plaza Derechos del hombre,SMARTLITMAPFRAME,-34.634,-58.5069,0.0,CORTINA 551,11111,12,False,"['KEY', 'TRANSITCARD', 'PHONE']",['VILLA LURO'],,,1000.0,True,
455,039 - Plaza Don Bosco,REGULARLITMAPFRAME,-34.6265,-58.508,0.0,Elpidio Gonzalez 5181,11111,16,False,"['KEY', 'TRANSITCARD', 'CREDITCARD', 'PHONE']",['VERSALLES'],,,1000.0,True,
457,110 - PLAZA CD DE BANFF,REGULARLITMAPFRAME,-34.628,-58.5217,0.0,ROMA 786,11111,16,False,"['KEY', 'TRANSITCARD', 'CREDITCARD', 'PHONE']",['VERSALLES'],,,1000.0,True,
458,219 - Parque Chacabuco II,REGULARLITMAPFRAME,-34.6364,-58.444,0.0,AV. ASAMBLEA 1400,11111,27,False,"['KEY', 'TRANSITCARD', 'CREDITCARD', 'PHONE']",['PARQUE CHACABUCO'],,,1000.0,True,
460,133 - BEIRO Y SEGUROLA,SMARTLITMAPFRAME,-34.6075,-58.5119,0.0,Segurola 3194,11111,16,False,"['KEY', 'TRANSITCARD', 'PHONE']",['VILLA DEVOTO'],,,1000.0,True,
461,106 - MOSCONI Y CONSTITUYENTES,SMARTLITMAPFRAME,-34.5809,-58.4936,0.0,CONSTITUYENTES 4710,1111,20,False,"['KEY', 'TRANSITCARD', 'PHONE']",['PARQUE CHAS'],,,1000.0,True,
464,377 - CIUDAD UNIVERSITARIA III,SMARTLITMAPFRAME,-34.541,-58.4441,0.0,Intendente Guiraldes 2160 - Pabellón III,1111,28,False,"['KEY', 'TRANSITCARD', 'PHONE']",['BELGRANO'],,,1000.0,True,
465,192 - HOSPITAL SIRIO,SMARTLITMAPFRAME,-34.5905,-58.5071,0.0,Gabriela Mistral 3325 y Campana,C1419,12,False,"['KEY', 'TRANSITCARD', 'PHONE']",['VILLA DEVOTO'],,,1000.0,True,
466,333 - PARQUE DE LA ESTACIÓN,SMARTLITMAPFRAME,-34.6081,-58.4118,0.0,Dr. Tomás Manuel de Anchorena 170,C1170,20,False,"['KEY', 'TRANSITCARD', 'PHONE']",['ALMAGRO'],,,1000.0,True,
467,328 - SARMIENTO II,SMARTLITMAPFRAME,-34.6055,-58.3959,0.0,Sarmiento 2037,C1044,12,False,"['KEY', 'TRANSITCARD', 'PHONE']",['BALVANERA'],,,1000.0,True,
468,084 - TEATRO PICADERO,SMARTLITMAPFRAME,-34.6042,-58.3937,0.0,Riobamba 403,1111,8,False,"['KEY', 'TRANSITCARD', 'PHONE']",['BALVANERA'],,,1000.0,True,
469,062 - PARQUE ONEGA,SMARTLITMAPFRAME,-34.5934,-58.5138,0.0,Av. Gral.Mosconi 3780,C1419,16,False,"['KEY', 'TRANSITCARD', 'PHONE']",['VILLA DEVOTO'],,,1000.0,True,
471,173 - EL LIBERTADOR,SMARTLITMAPFRAME,-34.5947,-58.5033,0.0,Av. San Martín 6220,C1419,12,False,"['KEY', 'TRANSITCARD', 'PHONE']",['VILLA DEVOTO'],,,1000.0,True,
472,310 - FREIRE II,SMARTLITMAPFRAME,-34.5751,-58.4528,0.0,Tte. Gral Ramón Freire 1003,C1426,16,False,"['KEY', 'TRANSITCARD', 'PHONE']",['COLEGIALES'],,,1000.0,True,
473,216 - EMILIO LAMARCA,SMARTLITMAPFRAME,-34.6134,-58.4934,0.0,EMILIO LAMARCA 2066,C1407,12,False,"['KEY', 'TRANSITCARD', 'PHONE']",['VILLA SANTA RITA'],,,1000.0,True,
474,224 - BAIGORRIA,SMARTLITMAPFRAME,-34.6109,-58.503,0.0,Baigorria 4101,C1417,16,False,"['KEY', 'TRANSITCARD', 'PHONE']",['MONTE CASTRO'],,,1000.0,True,
475,238 - PLAZA LAS TOSCANERAS,SMARTLITMAPFRAME,-34.6165,-58.526,0.0,Ramón Lista 5500 (y Moliere),1111,12,False,"['KEY', 'TRANSITCARD', 'PHONE']",['VILLA LURO'],,,1000.0,True,
476,279 - PLAZA MONTE CASTRO,SMARTLITMAPFRAME,-34.6183,-58.4985,0.0,Gualeguaychú 1900,1111,12,False,"['KEY', 'TRANSITCARD', 'PHONE']",['MONTE CASTRO'],,,1000.0,True,
477,311 - SEC. DE INNOVACION Y TRANSFORMACIÓN,SMARTLITMAPFRAME,-34.635,-58.3951,0.0,Av. Caseros 2309,C1264,12,False,"['KEY', 'TRANSITCARD', 'PHONE']",['PARQUE PATRICIOS'],,,1000.0,True,
478,015 - AMENABAR,SMARTLITMAPFRAME,-34.5721,-58.4475,0.0,Teodoro García 2613,C1426,12,False,"['KEY', 'TRANSITCARD', 'PHONE']",['COLEGIALES'],,,1000.0,True,
479,347 - CARABOBO,SMARTLITMAPFRAME,-34.6263,-58.4553,0.0,Pumacahua 9,1111,24,False,"['KEY', 'TRANSITCARD', 'PHONE']",['CABALLITO'],,,1000.0,True,
480,353 - PLAZA VÉLEZ SARSFIELD,SMARTLITMAPFRAME,-34.6293,-58.4836,0.0,Chivilcoy 400,C1407,12,False,"['KEY', 'TRANSITCARD', 'PHONE']",['FLORESTA'],,,1000.0,True,
481,369 - PLAZA LARRAZABAL,SMARTLITMAPFRAME,-34.643,-58.5127,0.0,AV. LARRAZABAL 380,C1408,16,False,"['KEY', 'TRANSITCARD', 'PHONE']",['LINIERS'],,,1000.0,True,
482,376 - PASEO DE LA COSTANERA,SMARTLITMAPFRAME,-34.5505,-58.43,0.0,Av. Costanera Rafael Obligado 6200,1111,12,False,"['KEY', 'TRANSITCARD', 'PHONE']",['PALERMO'],,,1000.0,True,
483,175 - PLAZA MACKENNA,SMARTLITMAPFRAME,-34.5437,-58.4771,0.0,CRAMER 4500,C1429,12,False,"['KEY', 'TRANSITCARD', 'PHONE']",['SAAVEDRA'],,,1000.0,True,
484,295 - SUPERÍ,SMARTLITMAPFRAME,-34.5555,-58.4768,0.0,NUÑEZ 3486,1111,12,False,"['KEY', 'TRANSITCARD', 'PHONE']",['SAAVEDRA'],,,1000.0,True,
486,220 - PLAZA FELIX LIMA,SMARTLITMAPFRAME,-34.5421,-58.4706,0.0,RAMALLO 2200,C1429,12,False,"['KEY', 'TRANSITCARD', 'PHONE']",['Nuñez'],,,1000.0,True,
487,239 - AVENIDA CRAMER,SMARTLITMAPFRAME,-34.5581,-58.4673,0.0,Av. Cramer 2900,C1428,12,False,"['KEY', 'TRANSITCARD', 'PHONE']",['BELGRANO'],,,1000.0,True,
488,234 - AVENIDA TRIUNVIRATO,SMARTLITMAPFRAME,-34.5657,-58.4952,0.0,Av. Triunvirato 5752,1111,12,False,"['KEY', 'TRANSITCARD', 'PHONE']",['VILLA URQUIZA'],,,1000.0,True,
489,288 - SECRETARÍA DE DEPORTES,SMARTLITMAPFRAME,-34.5476,-58.4566,0.0,AV LIBERTADOR 7100,C1429,16,False,"['KEY', 'TRANSITCARD', 'PHONE']",['BELGRANO'],,,1000.0,True,
490,245 - COSTANERA NORTE,SMARTLITMAPFRAME,-34.5648,-58.402,0.0,AV. Costanera Rafael del Obligado 1700,C1425,16,False,"['KEY', 'TRANSITCARD', 'PHONE']",['PALERMO'],,,1000.0,True,
491,266 - PLAZA SABATTINI,SMARTLITMAPFRAME,-34.6123,-58.4433,0.0,COLPAYO 699,C1405,8,False,"['KEY', 'TRANSITCARD', 'PHONE']",['CABALLITO'],,,1000.0,True,
492,325 - MEDRANO,SMARTLITMAPFRAME,-34.6097,-58.4216,0.0,3905 Bartolomé Mitre,B1678,20,False,"['KEY', 'TRANSITCARD', 'PHONE']",['ALMAGRO'],,,1000.0,True,
493,208 - NICASIO OROÑO,SMARTLITMAPFRAME,-34.5967,-58.4594,0.0,Nicasio Oroño 2598,C1416,8,False,"['KEY', 'TRANSITCARD', 'PHONE']",['PATERNAL'],,,1000.0,True,
494,314 - ALLENDE,SMARTLITMAPFRAME,-34.6148,-58.5117,0.0,Allende 2794,C1417,12,False,"['KEY', 'TRANSITCARD', 'PHONE']",['VILLA DEVOTO'],,,1000.0,True,
496,052 - CAMPANA II,REGULARLITMAPFRAME,-34.5832,-58.5132,0.0,Cochrane 3298 (y Campana),1111,12,False,"['KEY', 'TRANSITCARD', 'CREDITCARD', 'PHONE']",['VILLA PUYRREDON'],,,1000.0,True,
497,307 - CERRETTI,SMARTLITMAPFRAME,-34.5744,-58.4962,0.0,Ceretti 2892,C1431,12,False,"['KEY', 'TRANSITCARD', 'PHONE']",['VILLA URQUIZA'],,,1000.0,True,
498,055 - HABANA,SMARTLITMAPFRAME,-34.5866,-58.495,,Gral. José Gervasio Artigas 4298 (y Habana),C1419,12,False,"['KEY', 'TRANSITCARD', 'PHONE']",['VILLA PUYRREDON'],,,1000.0,True,
499,286 - FILOSOFIA Y LETRAS,SMARTLITMAPFRAME,-34.6286,-58.4468,0.0,José Bonifacio 1407,C1406,16,False,"['KEY', 'TRANSITCARD', 'PHONE']",['CABALLITO'],,,1000.0,True,
500,235 - COMUNA 13,SMARTLITMAPFRAME,-34.5532,-58.4642,0.0,Ibera 2377,C1429,16,False,"['KEY', 'TRANSITCARD', 'PHONE']",['Nuñez'],,,999.0,True,
501,020 - GRECIA,SMARTLITMAPFRAME,-34.5492,-58.4619,0.0,Grecia 3290,C1429,16,False,"['KEY', 'TRANSITCARD', 'PHONE']",['Nuñez'],,,1000.0,True,
502,296 - SAN ISIDRO LABRADOR,SMARTLITMAPFRAME,-34.5407,-58.4752,0.0,Av. San Isidro Labrador 4850,,16,False,"['KEY', 'TRANSITCARD', 'PHONE']",['SAAVEDRA'],,,999.0,True,
503,212 - TRES ARROYOS,SMARTLITMAPFRAME,-34.6072,-58.4564,0.0,Paysandú 1491,C1416,20,False,"['KEY', 'TRANSITCARD', 'PHONE']",['CABALLITO'],,,1000.0,True,
504,214 - MORÓN,SMARTLITMAPFRAME,-34.6247,-58.4752,0.0,Morón 3089,C1406,12,False,"['KEY', 'TRANSITCARD', 'PHONE']",['FLORES'],,,1000.0,True,
505,337 - AV. J. B. JUSTO,SMARTLITMAPFRAME,-34.6226,-58.482,0.0,Emilio Lamarca 915 (y Av. Juan B. Justo),C1407,16,False,"['KEY', 'TRANSITCARD', 'PHONE']",['VILLA SANTA RITA'],,,1000.0,True,
506,040 - PARQUE SALGUERO,SMARTLITMAPFRAME,-34.5694,-58.3994,0.0,Av. Costa Salguero 1222,C1425,20,False,"['KEY', 'TRANSITCARD', 'PHONE']",['PALERMO'],,,1000.0,True,
507,271 - VILLA SOLDATI II,SMARTLITMAPFRAME,-34.6732,-58.4553,0.0,23 de junio 4249,,24,False,"['KEY', 'TRANSITCARD', 'PHONE']",['VILLA SOLDATI'],,,1000.0,True,
508,170 - RAFAELA,SMARTLITMAPFRAME,-34.6392,-58.4948,0.0,Rafaela 4811,C1407,12,False,"['KEY', 'TRANSITCARD', 'PHONE']",['VILLA LURO'],,,1000.0,True,
509,386 - VELEZ SARSFIELD,SMARTLITMAPFRAME,-34.6336,-58.4898,0.0,Av. Carrasco 214,C1407,12,False,"['KEY', 'TRANSITCARD', 'PHONE']",['VELEZ SARFIELD'],,,1000.0,True,
511,284 - AV. FOREST,SMARTLITMAPFRAME,-34.5754,-58.4627,0.0,Delgado 1569 (y Av. Forest),C1430,16,False,"['KEY', 'TRANSITCARD', 'PHONE']",['VILLA ORTUZAR'],,,1000.0,True,
512,195 - PARQUE CHAS,SMARTLITMAPFRAME,-34.5816,-58.4751,0.0,Av. De los Incas 4535,C1427,19,False,"['KEY', 'TRANSITCARD', 'PHONE']",['PARQUE CHAS'],,,1000.0,True,
513,308 - SAN MARTIN II,SMARTLITMAPFRAME,-34.5971,-58.4907,0.0,Av. San Martín 5129,,12,False,"['KEY', 'TRANSITCARD', 'PHONE']",['AGRONOMIA'],,,1000.0,True,
515,294 - PLAZOLETA RÍO DE LA PLATA,SMARTLITMAPFRAME,-34.5742,-58.4147,0.0,Av. Sarmiento 500,,15,False,"['KEY', 'TRANSITCARD', 'PHONE']",['PALERMO'],,,1000.0,True,
516,368 - PLAZA DE LA SHOÁ,SMARTLITMAPFRAME,-34.571,-58.4233,0.0,Av. Del Libertador 3899,,20,False,"['KEY', 'TRANSITCARD', 'PHONE']",['PALERMO'],,,1000.0,True,
517,332 - PACÍFICO II,SMARTLITMAPFRAME,-34.5745,-58.4248,0.0,Av. Int. Bullrich 300,,16,False,"['KEY', 'TRANSITCARD', 'PHONE']",['PALERMO'],,,1000.0,True,
518,329 - LAS CAÑITAS,SMARTLITMAPFRAME,-34.5739,-58.4318,0.0,Clay 2818,C1426,12,False,"['KEY', 'TRANSITCARD', 'PHONE']",['PALERMO'],,,1000.0,True,
519,053 - AV. DEL LIBERTADOR ,SMARTLITMAPFRAME,-34.5929,-58.3754,0.0,Av. Del Libertador 100,,20,False,"['KEY', 'TRANSITCARD', 'PHONE']",['RETIRO'],,,1000.0,True,
520,180 - PARQUE OLIMPICO,SMARTLITMAPFRAME,-34.6726,-58.4455,0.0,Av. Coronel Roca 5252 (dentro del Parque Olímpico). ,C1437,20,False,"['KEY', 'TRANSITCARD', 'PHONE']",['VILLA SOLDATI'],,,1000.0,True,
521,226 - AV. WARNES,SMARTLITMAPFRAME,-34.5965,-58.4664,0.0,Av. Warnes 2150,C1427,16,False,"['KEY', 'TRANSITCARD', 'PHONE']",['PATERNAL'],,,1000.0,True,
522,119 - PLAZOLETA BENEDIT,SMARTLITMAPFRAME,-34.6022,-58.4425,0.0,Av. Warnes y Av. R. Scalabrini Ortiz,,16,False,"['KEY', 'TRANSITCARD', 'PHONE']",['VILLA CRESPO'],,,1000.0,True,
524,338 - AV. CABILDO,SMARTLITMAPFRAME,-34.5579,-58.4607,0.0,Av. Cabildo 2586,C1428,12,False,"['KEY', 'TRANSITCARD', 'PHONE']",['BELGRANO'],,,1000.0,True,
525,317 - ESCUELA RAGGIO,SMARTLITMAPFRAME,-34.5367,-58.4668,0.0,Av. Libertador 8620 (y Pico),C1429,16,False,"['KEY', 'TRANSITCARD', 'PHONE']",['Nuñez'],,,1000.0,True,
526,088 - NUÑEZ ,SMARTLITMAPFRAME,-34.5416,-58.4634,0.0,Comodoro Martín Rivadavia 1630,C1429,12,False,"['KEY', 'TRANSITCARD', 'PHONE']",['Nuñez'],,,1000.0,True,
527,068 - AV. CORDOBA,SMARTLITMAPFRAME,-34.5887,-58.4384,0.0,Av. Cordoba 5403,,12,False,"['KEY', 'TRANSITCARD', 'PHONE']",['VILLA CRESPO'],,,1000.0,True,
528,042 - Skate Park Villa Luro,SMARTLITMAPFRAME,-34.6367,-58.4953,0.0, Av. Rivadavia 9301,C1407,16,False,"['KEY', 'TRANSITCARD', 'PHONE']",['VILLA LURO'],,,1000.0,True,
529,011 - RIO DE JANEIRO,SMARTLITMAPFRAME,-34.6133,-58.4301,0.0,Río de Janeiro 205,C1405,18,False,"['KEY', 'TRANSITCARD', 'PHONE']",['ALMAGRO'],,,1000.0,True,
530,031 - PARQUE RIVADAVIA,SMARTLITMAPFRAME,-34.6165,-58.4324,0.0,Av Rivadavia 4950,C1424,20,False,"['KEY', 'TRANSITCARD', 'PHONE']",['CABALLITO'],,,1000.0,True,
531,048 - JOSE AMALFITANI,SMARTLITMAPFRAME,-34.6336,-58.5213,0.0,Av. Juan Bautista Justo 6383,C1407,20,False,"['KEY', 'TRANSITCARD', 'PHONE']",['VERSALLES'],,,1000.0,True,
532,072 - INSTITUTO POLITÉCNICO MODELO,SMARTLITMAPFRAME,-34.573,-58.5039,0.0,Av Constituyentes 5880,C1431,20,False,"['KEY', 'TRANSITCARD', 'PHONE']",['VILLA URQUIZA'],,,1000.0,True,
533,077 - CRISOLOGO LARRALDE,SMARTLITMAPFRAME,-34.5612,-58.492,0.0,Galván 3601,,20,False,"['KEY', 'TRANSITCARD', 'PHONE']",['SAAVEDRA'],,,1000.0,True,
534,081 - PARQUE DE LAS CIENCIAS,SMARTLITMAPFRAME,-34.583,-58.43,0.0,Soler 5300 ,,24,False,"['KEY', 'TRANSITCARD', 'PHONE']",['PALERMO'],,,1000.0,True,
535,090 - HONORIO PUEYRREDON,SMARTLITMAPFRAME,-34.6025,-58.4497,0.0,Honorio Pueyrredón 1653,C1414,20,False,"['KEY', 'TRANSITCARD', 'PHONE']",['VILLA CRESPO'],,,1000.0,True,
536,019 - PLAZA  SAN MARTIN,SMARTLITMAPFRAME,-34.5955,-58.3775,0.0,Av. Santa Fe 716,C1006,20,False,"['KEY', 'TRANSITCARD', 'PHONE']",['RETIRO'],,,1000.0,True,
537,389 - Av. ELCANO,SMARTLITMAPFRAME,-34.5708,-58.4581,0.0,Av. ELCANO 3000,C1426,12,False,"['KEY', 'TRANSITCARD', 'PHONE']",['COLEGIALES'],,,1000.0,True,
538,047 - PARQUE DE LA INNOVACIÓN,SMARTLITMAPFRAME,-34.5451,-58.4514,0.0,Av. G. Udaondo 1146,C1428,16,False,"['KEY', 'TRANSITCARD', 'PHONE']",['Nuñez'],,,1000.0,True,
539,115 - JUAN DE GARAY,SMARTLITMAPFRAME,-34.627,-58.3806,0.0,Av. Juan de Garay 1135,,20,False,"['KEY', 'TRANSITCARD', 'PHONE']",['CONSTITUCION'],,,1000.0,True,
540,185 - JORGE NEWBERY,SMARTMAPFRAME,-34.5577,-58.4103,0.0,Av. Costanera Rafael Obligado,,18,False,"['KEY', 'TRANSITCARD', 'PHONE']",['PALERMO'],,,1000.0,True,PAVES DOBLES
541,198 - AEROPARQUE,SMARTLITMAPFRAME,-34.5557,-58.4132,0.0,Av. Costanera Rafael Obligado,,12,False,"['KEY', 'TRANSITCARD', 'PHONE']",['PALERMO'],,,1000.0,True,
542,202 - VICTOR MANUEL ACUÑA,SMARTLITMAPFRAME,-34.5539,-58.4195,0.0,Av. Costanera Rafael Obligado,,16,False,"['KEY', 'TRANSITCARD', 'PHONE']",['PALERMO'],,,1000.0,True,
543,139 - CASA ROSADA,SMARTLITMAPFRAME,-34.6075,-58.3667,0.0,Av. Alicia Moreau de Justo 861,C1107,16,False,"['KEY', 'TRANSITCARD', 'PHONE']",['PUERTO MADERO'],,,1000.0,True,
544,078 - TEATRO COLÓN,SMARTLITMAPFRAME,-34.6006,-58.3824,0.0,Cerrito 698,C1010,23,False,"['KEY', 'TRANSITCARD', 'PHONE']",['SAN NICOLAS'],,,1000.0,True,
545,141 - DEL BARCO CENTENERA,SMARTLITMAPFRAME,-34.6278,-58.4403,0.0,Del Barco Centenera 741,C1424,20,False,"['KEY', 'TRANSITCARD', 'PHONE']",['CABALLITO'],,,999.0,True,
546,143 - COMUNA 7,SMARTLITMAPFRAME,-34.6313,-58.4418,0.0,Emilio Mitre 860,C1424,16,False,"['KEY', 'TRANSITCARD', 'PHONE']",['PARQUE CHACABUCO'],,,1000.0,True,
547,023 - ALMAGRO,SMARTLITMAPFRAME,-34.6202,-58.4221,0.0,México 4000,C1216,20,False,"['KEY', 'TRANSITCARD', 'PHONE']",['ALMAGRO'],,,1000.0,True,
548,051 - PLAZA SUDAMERICA,SMARTLITMAPFRAME,-34.6878,-58.4752,0.0,Av. Piedrabuena 4901,C1439,20,False,"['KEY', 'TRANSITCARD', 'PHONE']",['VILLA RIACHUELO'],,,999.0,True,
549,095 - EMILIO CASTRO,SMARTLITMAPFRAME,-34.6497,-58.5108,0.0,Av. Emilio Castro 6301,C1440,16,False,"['KEY', 'TRANSITCARD', 'PHONE']",['LINIERS'],,,1000.0,True,
550,154 - LINIERS,SMARTLITMAPFRAME,-34.6348,-58.5271,0.0,Av. Juan Bautista Justo 9710,C1408,20,False,"['KEY', 'TRANSITCARD', 'PHONE']",['LINIERS'],,,1000.0,True,
551,157 - LEGUIZAMON,SMARTLITMAPFRAME,-34.6448,-58.5189,0.0,Martiniano Leguizamón 599,C1408,20,False,"['KEY', 'TRANSITCARD', 'PHONE']",['LINIERS'],,,1000.0,True,
552,209 - DEVOTO,SMARTLITMAPFRAME,-34.6029,-58.5126,0.0,Ricardo Gutierrez 4224,,24,False,"['KEY', 'TRANSITCARD', 'PHONE']",['VILLA DEVOTO'],,,1000.0,True,
553,210 - JOSE LEON CABEZON,SMARTLITMAPFRAME,-34.5802,-58.5009,0.0,José León Cabezón 2516,,16,False,"['KEY', 'TRANSITCARD', 'PHONE']",['VILLA PUYRREDON'],,,999.0,True,
554,211 - BLANCO ENCALADA,SMARTLITMAPFRAME,-34.5699,-58.4767,0.0,Blanco Encalada 4118,C1430,16,False,"['KEY', 'TRANSITCARD', 'PHONE']",['VILLA URQUIZA'],,,999.0,True,
556,230 - AREVALO,SMARTLITMAPFRAME,-34.5836,-58.4436,0.0,Arévalo 1408,C1414,32,False,"['KEY', 'TRANSITCARD', 'PHONE']",['PALERMO'],,,1000.0,True,
